編號,中文地址,英文地址,地區,檢疫結束日期,lat,long
1,加多近山,CADOGAN,中西區,2020-02-27,22.2820583,114.1265172
2,西摩道11號福澤花園A座,"BLOCK A, THE FORTUNE GARDENS, NO.11 SEYMOUR ROAD",中西區,2020-02-27,22.2812731,114.1507863
3,花園道55號愛都大廈3座,"BLOCK 3, ESTORIL COURT, NO.55 GARDEN ROAD",中西區,2020-02-27,22.2751602,114.1565225
4,皇后大道西355-359號,NO.355-359 QUEEN'S ROAD WEST,中西區,2020-02-27,22.2869451,114.1403655
5,泰成大廈,TAI SHING BUILDING,中西區,2020-02-27,22.2871978,114.1486033
6,高雲臺,GOLDWIN HEIGHTS,中西區,2020-02-27,22.2815718,114.1499967
7,啟豐大廈,KAI FUNG MANSION,中西區,2020-02-27,22.2851104,114.1526558
8,堅城中心,KENNEDY TOWN CENTRE,中西區,2020-02-27,22.2839478,114.1306869
9,第三街208號毓明閣1座,"BLOCK 1, YUK MING TOWERS, NO.208 THIRD STREET",中西區,2020-02-27,22.2858849,114.1376871
10,德輔道西333號,NO.333 DES VOEUX ROAD WEST,中西區,2020-02-27,22.287581,114.1386799
11,德輔道西408A號,NO.408A DES VOEUX ROAD WEST,中西區,2020-02-27,22.286549,114.136238
12,蔚然,AZURA,中西區,2020-02-27,22.2820698,114.1497413
13,羅便臣道74號1座,"BLOCK 1, NO.74 ROBINSON ROAD",中西區,2020-02-27,22.2822204,114.1478137
14,BRANKSOME GRANDE,BRANKSOME GRANDE,中西區,2020-02-28,22.288335,114.1405085
15,CONDUIT 18,CONDUIT 18,中西區,2020-02-28,22.2788329,114.1511231
16,加惠民道29號加惠臺1座,"BLOCK 1, CAYMAN RISE, NO.29 KA WAI MAN ROAD",中西區,2020-02-28,22.2816147,114.1245019
17,永成樓,WING SHING BUILDING,中西區,2020-02-28,22.287007,114.139906
18,永樂街105號,NO.105 WING LOK STREET,中西區,2020-02-28,22.2861197,114.1515759
19,先施西環大廈,SINCERE WESTERN HSE,中西區,2020-02-28,22.2813605,114.1265172
20,利基閣,TOPWORTH COURT,中西區,2020-02-28,22.285736,114.1434128
21,卑路乍街48號,NO.48 BELCHER'S STREET,中西區,2020-02-28,22.2826017,114.1294394
22,和益大廈,WO YICK MANSION,中西區,2020-02-28,22.2870425,114.1432154
23,明興大廈,MING HING BUILDING,中西區,2020-02-28,22.287771,114.1410788
24,東利大樓,TUNG LEE MANSION,中西區,2020-02-28,22.287109,114.138799
25,皇后大道西419號,NO.419 QUEEN'S ROAD WEST,中西區,2020-02-28,22.2864983,114.1378018
26,皇后大道西489-499號美新樓,"MEI SUN LAU, NO.489-499 QUEEN'S ROAD WEST",中西區,2020-02-28,22.2865993,114.1338329
27,堅彌地城新海旁38號泓都1座,"BLOCK 1, THE MERTON, NO.38 NEW PRAYA KENNEDY TOWN",中西區,2020-02-28,22.2835031,114.1261559
28,祥暉大廈,CHEUNG FAI BUILDING,中西區,2020-02-28,22.282402,114.153756
29,第二街108號,NO.108 SECOND STREET,中西區,2020-02-28,22.2861141,114.1403823
30,第二街143號海昇大廈2座,"BLOCK 2, HOI SING BUILDING, NO.143 SECOND STREET",中西區,2020-02-28,22.286111,114.139403
31,荷李活道108號聚賢居2座,"BLOCK 2, CENTRESTAGE, NO.108 HOLLYWOOD ROAD",中西區,2020-02-28,22.2837585,114.1507863
32,結志街28-32號,NO.28-32 GAGE STREET,中西區,2020-02-28,22.2833922,114.1532765
33,德輔道西343號均益大廈第二期A座,"BLOCK A, PHASE II, KWAN YICK BUILDING, NO.343 DES VOEUXROAD WEST",中西區,2020-02-28,22.2875172,114.1380481
34,樂信大廈,ROCKSON MANSION,中西區,2020-02-28,22.2868367,114.1393254
35,聯友新樓,LUEN YAU APARTMENTS,中西區,2020-02-28,22.2823953,114.127841
36,士美菲路43號美菲閣1座,"BLOCK 1, SMITHFIELD COURT, NO.43 SMITHFIELD",中西區,2020-02-29,22.2821481,114.1280268
37,干諾道西155號高樂花園,"CONNAUGHT GARDEN, NO.155 CONNAUGHT ROAD WEST",中西區,2020-02-29,22.288333,114.141916
38,天和樓,TEEN WO BUILDING,中西區,2020-02-29,22.2865666,114.1452011
39,太生大廈,TAI SANG BUILDING,中西區,2020-02-29,22.2833244,114.129699
40,加惠民道29號加惠臺2座,"BLOCK 2, CAYMAN RISE, NO.29 KA WAI MAN ROAD",中西區,2020-02-29,22.2817409,114.1247911
41,北街4-8號五福大廈A座,"BLOCK A, NEW FORTUNE HOUSE, NO.4-8 NORTH STREET",中西區,2020-02-29,22.2838157,114.1286539
42,安景閣,FAIRVIEW COURT,中西區,2020-02-29,22.2839463,114.1364921
43,百好大廈,PAK HOO MANSION,中西區,2020-02-29,22.286134,114.1340187
44,怡豐閣,YEE FUNG COURT,中西區,2020-02-29,22.2860049,114.1412182
45,星鑽,THE NOVA,中西區,2020-02-29,22.2855924,114.1413778
46,皇后大道西297號,NO.297 QUEEN'S ROAD WEST,中西區,2020-02-29,22.2870212,114.142327
47,美新大廈,MAY SUN BUILDING,中西區,2020-02-29,22.2836164,114.127841
48,海光大廈,"BLOCK YOOFHILL, HAI KWANG MANSION",中西區,2020-02-29,22.2844752,114.1362482
49,般咸道17號,NO.17 BONHAM ROAD,中西區,2020-02-29,22.284496,114.1427581
50,堅尼地城卑路乍街13號珍珠閣B座,"BLK B, PEARL COURT, NO.13 BELCHER'S STREET, KENNEDY TOWN",中西區,2020-02-29,22.2843917,114.1312318
51,第二街121號,NO.121 SECOND STREET,中西區,2020-02-29,22.2862813,114.1402422
52,荷李活道174號,NO.174 HOLLYWOOD ROAD,中西區,2020-02-29,22.284876,114.148962
53,順泰大廈,SHUN TAI BUILDING,中西區,2020-02-29,22.2867155,114.1409279
54,新安大廈,SUN ON MANSION,中西區,2020-02-29,22.2858192,114.1353626
55,新城大樓,SUN SHING BUILDING,中西區,2020-02-29,22.2862984,114.1328343
56,新豐樓,SUN FUNG MANSION,中西區,2020-02-29,22.2824336,114.1533874
57,瑧蓺,ARTISAN HOUSE,中西區,2020-02-29,22.2874224,114.1418611
58,德輔道西273號均益大廈第三期A座,"BLOCK A, PHASE III, KWAN YICK BUILDING, NO.273 DES VOEUXROAD WEST",中西區,2020-02-29,22.288448,114.140655
59,德輔道西430號均益大廈第一期,"PHASE I, KWAN YICK BUILDING, NO.430 DES VOEUX ROAD WEST",中西區,2020-02-29,22.288448,114.140655
60,德輔道西442號美新樓A座,"BLOCK A, MEI SUN LAU, NO.442 DES VOEUX ROAD WEST",中西區,2020-02-29,22.2869335,114.1339258
61,德輔道西46-50號,NO.46-50 DES VOEUX RPAD WEST,中西區,2020-02-29,22.2874609,114.1469312
62,樂怡軒,LOUIS HEIGHTS,中西區,2020-02-29,22.2865602,114.1381916
63,餘慶大廈,YU HING MANSION,中西區,2020-02-29,22.2872707,114.1484175
64,豐盛大廈,FUNG SING MANSION,中西區,2020-02-29,22.2859152,114.1397086
65,豐逸大廈,FUNG YAT BUILDING,中西區,2020-02-29,22.2854296,114.1426581
66,九如坊12號,NO.12 KAU U FONG,中西區,2020-03-01,22.2846066,114.1528651
67,大德樓,TAI TAK MANSION,中西區,2020-03-01,22.2829986,114.1278874
68,山道閣,HILL ROAD COURT,中西區,2020-03-01,22.2844188,114.1363992
69,永興樓,WING HING HOUSE,中西區,2020-03-01,22.2857584,114.1357141
70,伊利近街49號,NO.49 ELGIN STREET,中西區,2020-03-01,22.2813844,114.1524352
71,安樂大樓前座,"BLOCK FRONT, ON LOK MANSION",中西區,2020-03-01,22.2863307,114.133322
72,卑路乍街13號珍珠閣B座,"BLOCK B, PEARL COURT, NO.13 BELCHER'S STREET",中西區,2020-03-01,22.2843917,114.1312318
73,南生大廈,NAN SANG BUILDING,中西區,2020-03-01,22.2824386,114.1283984
74,恒陞大樓,HANG SING MANSION,中西區,2020-03-01,22.285038,114.1415433
75,皇后大道西311-325號,311-324 QUEEN'S ROAD WEST,中西區,2020-03-01,22.2870672,114.1418801
76,美輪樓,MERLIN BUILDING,中西區,2020-03-01,22.2838242,114.1525165
77,泰發大廈,TAI FAT BUILDING,中西區,2020-03-01,22.287291,114.1459326
78,真光大廈,TRUE LIGHT BUILDING,中西區,2020-03-01,22.2855513,114.1403589
79,高街21號,NO.21 HIGH STREET,中西區,2020-03-01,22.2852666,114.1430354
80,第一街716號,NO.716 FIRST STREET,中西區,2020-03-01,22.2865463,114.1419788
81,華里3號,NO.3 WA LANE,中西區,2020-03-01,22.2854937,114.1485167
82,僑發大廈,KIU FAT BUIDING,中西區,2020-03-01,22.2866074,114.1463971
83,榮基大廈,WING GA BUILDING,中西區,2020-03-01,22.2845603,114.1367476
84,德輔道西394-400號華明中心C座,"BLOCK C, WAH MING CENTRE, NO.394-400 DES VOEUX ROAD WEST",中西區,2020-03-01,22.2867131,114.1369914
85,德輔道西406D號,NO.406D DES VOEUX ROAD WEST,中西區,2020-03-01,22.286472,114.13622
86,寶翠園2座,"BLOCK 2, THE BELCHER'S",中西區,2020-03-01,22.2846121,114.1330201
87,士美菲路71號嘉輝花園D座,"BLOCK D, SMITHFIELD TERRACE, NO.71 SMITHFIELD",中西區,2020-03-02,22.2806867,114.1287235
88,山道89號,NO.89 HILL ROAD,中西區,2020-03-02,22.2844178,114.1365532
89,兆安大廈,SIU ON BUILDING,中西區,2020-03-02,22.288125,114.1413924
90,西祥街2號寶翠閣A座,"BLOCK A, BELCHER COURT, NO.2 SAI CHEUNG STREET",中西區,2020-03-02,22.2850662,114.1319268
91,西環新樓,SAI WAN NEW APARTMENTS,中西區,2020-03-02,22.2823953,114.1263451
92,良基大廈,LIANG GA BUILDING,中西區,2020-03-02,22.2873582,114.1392674
93,卑路乍街68號,NO.68 BELCHER'S STREET,中西區,2020-03-02,22.2825204,114.1285311
94,居仁閣,KUI YAN COURT,中西區,2020-03-02,22.2855253,114.1387913
95,明德山,KING'S HILL,中西區,2020-03-02,22.284638,114.1420694
96,保基大廈,PO GA BUILDING,中西區,2020-03-02,22.2848768,114.1362598
97,皇后大道中244號,NO.244 QUEEN'S ROAD CENTRAL,中西區,2020-03-02,22.2845856,114.1515701
98,盈基花園寶龍閣(第一座)1座,"BLOCK 1, PO LUNG COURT (TOWER 1), YING GA GARDEN",中西區,2020-03-02,22.2834469,114.1311389
99,香港大學職工宿舍B座,"BLOCK B, JUNIOR STAFF QUARTERS, THE UNIVERSITY OF HONG",中西區,2020-03-02,22.2730219,114.1498806
100,高雅閣,KO NGA COURT,中西區,2020-03-02,22.2853999,114.1434012
101,荷李活大樓,HOLLYWOOD BUILDING,中西區,2020-03-02,22.2852375,114.1483666
102,荷李活道165號,NO.165 HOLLYWOOD ROAD,中西區,2020-03-02,22.2843984,114.1500304
103,華寶大廈,WAH PO BUILDING,中西區,2020-03-02,22.2839025,114.1292112
104,奧卑利街17A號,17A OLD BAILEY STREET,中西區,2020-03-02,22.2812777,114.1532819
105,萬林閣,MANIFOLD COURT,中西區,2020-03-02,22.2855334,114.140057
106,德輔道西114號,NO.114 DES VOEUX ROAD WEST,中西區,2020-03-02,22.2877666,114.1453395
107,德輔道西273號均益大廈第三期,"PHASE III, KWAN YICK BUILDING, NO.273 DES VOEUX ROAD WEST",中西區,2020-03-02,22.288448,114.140655
108,德輔道西406C號,NO.406C DES VOEUX ROAD WEST,中西區,2020-03-02,22.286663,114.1363358
109,德輔道西408D號,NO.408D DES VOEUX ROAD WEST,中西區,2020-03-02,22.286472,114.13622
110,龍華街20號觀龍樓C座,"BLOCK C, KWUN LUNG LAU, NO.20 LUNG WAH STREET",中西區,2020-03-02,22.2805127,114.1281661
111,懋華大廈,MAU WAH MANSION,中西區,2020-03-02,22.2835671,114.1307905
112,聯基新樓,LUEN GAY APARTMENTS,中西區,2020-03-02,22.2819269,114.1273533
113,舊山頂道23號帝景園1座,"BLOCK 1, DYNASTY COURT, NO.23 OLD PEAK ROAD",中西區,2020-03-02,22.2761228,114.152621
114,舊山頂道23號帝景園3座,"BLOCK 3, DYNASTY COURT, NO.23 OLD PEAK ROAD",中西區,2020-03-02,22.2754539,114.1529926
115,豐景閣,FUNG KING COURT,中西區,2020-03-02,22.2867797,114.1424607
116,醫院道8號,8 HOSPITAL ROAD,中西區,2020-03-02,22.2839564,114.1466874
117,譽皇居,AIGBURTH,中西區,2020-03-02,22.2734336,114.1530855
118,士美菲路73號嘉輝花園C座,"BLOCK C, SMITHFIELD TERRACE, NO.73 SMITHFIELD",中西區,2020-03-03,22.280534,114.1288629
119,水坑口街26號,NO.26 POSSESSION STREET,中西區,2020-03-03,22.2855086,114.1479753
120,石塘咀和合街1-3號金陵閣,"KAM LING COURT, NO.1-3 WOO HOP STREET, SHEK TONG TSUI",中西區,2020-03-03,22.286003,114.134338
121,地利根德里14號地利根德閣3座,"BLOCK 3, TREGUNTER, NO.14 TREGUNTER PATH",中西區,2020-03-03,22.2745531,114.152621
122,西源里22號,NO.22 SAI YUEN LANE,中西區,2020-03-03,22.287263,114.1419126
123,佳景閣,JADEVIEW COURT,中西區,2020-03-03,22.2851665,114.1351799
124,卑路乍街11號海都樓A座,"BLOCK A, HOI TAO BUILDING, NO.11 BELCHER'S STREET",中西區,2020-03-03,22.2845277,114.1314437
125,卑路乍街7號海都樓C座,"BLOCK C, HOI TAO BUILDING, NO.7 BELCHER'S STREET",中西區,2020-03-03,22.2846458,114.1315569
126,卑路乍街9號海都樓B座,"BLOCK B, HOI TAO BUILDING, NO.9 BELCHER'S STREET",中西區,2020-03-03,22.2845277,114.1314437
127,昌寧大廈,CHEUNG LING MANSION,中西區,2020-03-03,22.2880521,114.1394299
128,東利大樓A座,"BLOCK A, TUNG LEE MANSION",中西區,2020-03-03,22.287109,114.138799
129,東邊街1-3號,NO.1-3 EASTERN STREET,中西區,2020-03-03,22.2879031,114.1437861
130,香港大學聚賢堂,"GRADUATE HOUSE, THE UNIVERSITY OF HONG KONG",中西區,2020-03-03,22.2837058,114.1510552
131,偉安樓,WAI ON HOUSE,中西區,2020-03-03,22.2852998,114.1389771
132,得利大廈,TAK LEE BUILDING,中西區,2020-03-03,22.2867813,114.1426581
133,第三街163號廣豐臺2座,"BLOCK 2, KWONG FUNG TERRACE, NO.163 THIRD STREET",中西區,2020-03-03,22.2859995,114.1387564
134,普慶大廈,PO HING MANSION,中西區,2020-03-03,22.284644,114.14718
135,萬和閣,HARMONY COURT,中西區,2020-03-03,22.286307,114.150496
136,裕豐花園,RICHSUN GARDEN,中西區,2020-03-03,22.2853716,114.1424723
137,翠華閣,JADE COURT,中西區,2020-03-03,22.2850225,114.142751
138,豪景臺,RICH VIEW TERRACE,中西區,2020-03-03,22.2843485,114.1492536
139,德輔道西363號,NO.363 DES VOEUX ROAD WEST,中西區,2020-03-03,22.2869043,114.1363962
140,聯康新樓,LUEN HONG APARTMENTS,中西區,2020-03-03,22.2822611,114.1274462
141,巴丙頓山,BABINGTON HILL,中西區,2020-03-04,22.2825112,114.141623
142,些利閣,SHELLEY COURT,中西區,2020-03-04,22.2805312,114.1516224
143,和合街1-3號金陵閣,"KAM LING COURT, NO.1-3 WOO HOP STREET",中西區,2020-03-04,22.286003,114.134338
144,昌裕大廈,CHEONG YUE MANSION,中西區,2020-03-04,22.2837391,114.1290022
145,冠南樓,KOON NAM HSE,中西區,2020-03-04,22.282939,114.1509373
146,冠華大廈,KOON WAH BUILDING,中西區,2020-03-04,22.2863484,114.1387564
147,建益大樓,KIN YICK MANSION,中西區,2020-03-04,22.2841376,114.1309066
148,恆裕大廈,HANG YUE BUILDING,中西區,2020-03-04,22.281793,114.1264011
149,皇后大道西409號怡景花園1座,"BLOCK 1, ELEGANT GARDEN, NO.409 QUEEN'S ROAD WEST",中西區,2020-03-04,22.2865913,114.13828
150,皇后大道西455號龍暉花園1座,"BLOCK 1, DRAGONFAIR GARDEN, NO.455 QUEEN'S ROAD WEST",中西區,2020-03-04,22.286366,114.1347619
151,美蘭閣,MIDLAND COURT,中西區,2020-03-04,22.2812868,114.1518082
152,香港大學學生宿舍三村C座,香港大學學生宿舍三村C座,中西區,2020-03-04,22.2805127,114.1281661
153,堅彌地城新海旁38號泓都2座,"BLOCK 2, THE MERTON, NO.38 NEW PRAYA KENNEDY TOWN",中西區,2020-03-04,22.2831981,114.1261346
154,得富大廈,YICK FUNG BUILDING,中西區,2020-03-04,22.2864557,114.1362715
155,荷李活道108號聚賢居1座,"BLOCK 1, CENTRESTAGE, NO.108 HOLLYWOOD ROAD",中西區,2020-03-04,22.2837147,114.151065
156,興華樓,HING WAH HOUSE,中西區,2020-03-04,22.2857499,114.1420078
157,龍輝樓,LUNG FAI MANSION,中西區,2020-03-04,22.2834231,114.1314989
158,寶雲山莊,FAIRLANE TOWER,中西區,2020-03-04,22.2742297,114.1604945
159,士美菲路77號嘉輝花園A座,"BLOCK A, SMITHFIELD TERRACE, NO.77 SMITHFIELD",中西區,2020-03-05,22.2800942,114.1290254
160,干德道22號慧豪閣2座,"BLOCK 2, VANTAGE PARK, NO.22 CONDUIT ROAD",中西區,2020-03-05,22.2795292,114.1505077
161,仁愛苑,YEN OI GARDEN,中西區,2020-03-05,22.284657,114.1362018
162,合隆大廈,HA LUNG BUILDING,中西區,2020-03-05,22.2872436,114.1460952
163,俊威閣,CHARMVIEW COURT,中西區,2020-03-05,22.2840444,114.1365618
164,俊賢閣,INTELLIGENT COURT,中西區,2020-03-05,22.2850254,114.1367011
165,恒輝大廈,HANG FAI BUILDING,中西區,2020-03-05,22.2859621,114.1401034
166,香港大學柏立基學院逸東樓,"YAT TUNG HOUSE, SIR ROBERT BLACK COLLEGE, THE UNIVERSITYOF HONG KONG",中西區,2020-03-05,22.2817324,114.1391386
167,香港大學聖約翰學院王植庭堂,"WONG CHIK TING HALL, ST. JOHN'S COLLEGE UNIVERSITY OF HONGKONG",中西區,2020-03-05,22.280922,114.132205
168,家安大廈,GRACE MANSION,中西區,2020-03-05,22.2868145,114.1374559
169,高陞大廈,KOOSING BUILDING,中西區,2020-03-05,22.2870119,114.1458993
170,偉景閣,VIKING COURT,中西區,2020-03-05,22.287947,114.139128
171,第二街128號海昇大廈2座,"BLOCK 2, HOI SING BUILDING, NO.128 SECOND STREET",中西區,2020-03-05,22.2861134,114.139488
172,華利樓,WAH LEE BUILDING,中西區,2020-03-05,22.2866567,114.144005
173,嘉輝花園A座,"BLOCK A, SMITHFIELD TERRACE",中西區,2020-03-05,22.2800942,114.1290254
174,歌賦山里,GOUGH HILL PATH,中西區,2020-03-05,22.265615,114.152761
175,歌賦山道,GOUGH HILL ROAD,中西區,2020-03-05,22.2663936,114.1556146
176,碧林閣,POKFULAM COURT,中西區,2020-03-05,22.276642,114.130816
177,德輔道西406A號,NO.406A DES VOEUX ROAD WEST,中西區,2020-03-05,22.286472,114.13622
178,摩羅上街28號,NO.28 UPPER LASCAR ROW,中西區,2020-03-05,22.2848294,114.1495825
179,曉暉大廈,SUNGLOW BUILDING,中西區,2020-03-05,22.2860686,114.1322962
180,龍豐閣,LUN FUNG COURT,中西區,2020-03-05,22.2869219,114.1362426
181,寶泰大廈,PO THAI BUILDING,中西區,2020-03-05,22.2856737,114.1483827
182,觀龍樓1座,"BLOCK 1, KWUN LUNG LAU",中西區,2020-03-05,22.2803135,114.1270746
183,LEXINGTON HILL,LEXINGTON HILL,中西區,2020-03-06,22.2824314,114.1297789
184,正德大廈,CHING TAK BUILDING,中西區,2020-03-06,22.2877199,114.141404
185,永華大廈,WING WAH MANSION,中西區,2020-03-06,22.2860196,114.1362715
186,和合街1-3號金陵閣A座,"BLOCK A, KAM LING COURT, NO.1-3 WOO HOP STREET",中西區,2020-03-06,22.286003,114.134338
187,屈地大廈,WHITTY STREET COURT,中西區,2020-03-06,22.2862521,114.1364572
188,屈地街11-21號創業中心B座,"BLOCK B, CHONG YIP CENTRE, NO.11-21 WHITTY STREET",中西區,2020-03-06,22.2863862,114.1368521
189,皇后大道西367號,NO. 367 QUEEN'S ROAD WEST,中西區,2020-03-06,22.2868361,114.139583
190,皇后大道西367號,NO.367 QUEEN'S ROAD WEST,中西區,2020-03-06,22.2868361,114.139583
191,皇后大道西421號華明中心A座,"BLOCK A, WAH MING CENTRE, NO.421 QUEEN'S ROAD WEST",中西區,2020-03-06,22.2865041,114.1371404
192,香港大學柏立基學院,"SIR ROBERT BLACK COLLEGE, THE UNIVERSITY OF HONG KONG",中西區,2020-03-06,22.2817324,114.1391386
193,夏蕙苑,SAVOY COURT,中西區,2020-03-06,22.2823189,114.1466726
194,雅蘭閣,ORLINS COURT,中西區,2020-03-06,22.2863207,114.1375009
195,新安大樓,SUN ON BUILDING,中西區,2020-03-06,22.2858022,114.1354354
196,毓明閣1座,"BLOCK 1, YUK MING TOWERS",中西區,2020-03-06,22.285666,114.1377849
197,德輔道中406號前座,"BLOCK FRONT, NO.406 DES VOEUX ROAD CENTRAL",中西區,2020-03-06,22.286777,114.1505999
198,德輔道西228號,NO.228 DES VOEUX ROAD WEST,中西區,2020-03-06,22.2877319,114.1422284
199,德輔道西343號均益大廈第二期B座,"BLOCK B, PHASE II, KWAN YICK BUILDING, NO.343 DES VOEUX ROADWEST",中西區,2020-03-06,22.2875172,114.1380481
200,薄扶林道89號寶翠園8座,"BLOCK 8, THE BELCHER'S, NO.89 POK FU LAM ROAD",中西區,2020-03-06,22.2858039,114.1332059
201,IMPERIAL KENNEDY,IMPERIAL KENNEDY,中西區,2020-03-07,22.282437,114.128646
202,大新閣,SUN COURT,中西區,2020-03-07,22.2859318,114.1322537
203,干諾道西155號高樂花園3座,"BLOCK 3, CONNAUGHT GARDEN, NO.155 CONNAUGHT ROAD WEST",中西區,2020-03-07,22.2884171,114.1419613
204,文景大廈,MAN KING BUILDING,中西區,2020-03-07,22.2867667,114.1491955
205,永利街11號,NO.11 WING LEE STREET,中西區,2020-03-07,22.2832809,114.1503817
206,兆宜大廈,SIU YEE BUILDING,中西區,2020-03-07,22.2862546,114.133113
207,如意樓,YU YEE BUILDING,中西區,2020-03-07,22.2868196,114.1401963
208,利豐大廈,LEE FUNG BUILDING,中西區,2020-03-07,22.285485,114.1502058
209,卑路乍街13號珍珠閣A座,"BLOCK A, PEARL COURT, NO.13 BELCHER'S STREET",中西區,2020-03-07,22.2843917,114.1312318
210,卑路乍街5號南雄大廈B座,"BLOCK B, NAMHUNG MANSION, NO.5 BELCHER'S STREET",中西區,2020-03-07,22.2853578,114.1320214
211,東利大樓B座,"BLOCK B, TUNG LEE MANSION",中西區,2020-03-07,22.2869334,114.1387797
212,金庭居,GOLDEN PAVILION,中西區,2020-03-07,22.2814305,114.1516572
213,金陵大廈,KAM LING COURT,中西區,2020-03-07,22.2862233,114.1360857
214,青蓮閣,CHING LIN COURT,中西區,2020-03-07,22.2824583,114.1313247
215,保德街1-7號,NO.1-7 PO TUCK STREET,中西區,2020-03-07,22.2846789,114.1360624
216,皇后街1號帝后華庭3座,"BLOCK 3, QUEEN'S TERRACE, NO.1 QUEEN STREET",中西區,2020-03-07,22.2870208,114.1476807
217,海都樓C座,海都樓C座,中西區,2020-03-07,22.2845277,114.1314437
218,高陞大廈,KO SHING BUILDING,中西區,2020-03-07,22.2870119,114.1458993
219,堅彌地城海旁20號益豐花園B座,"BLOCK B, YICK FUNG GARDEN, NO.20 PRAYA KENNEDY TOWN",中西區,2020-03-07,22.2857663,114.1321659
220,梅苑1座,MAY TOWER I,中西區,2020-03-07,22.2734437,114.1539912
221,荷李活道52號,NO.52 HOLLYWOOD ROAD,中西區,2020-03-07,22.2825594,114.1529345
222,惠苑,WAI YUEN MANSION,中西區,2020-03-07,22.2751106,114.1573315
223,華冠大廈,WAH KOON BUILDING,中西區,2020-03-07,22.2847697,114.1496252
224,新街市街8號康威花園B座,"BLOCK B, HONGWAY GARDEN, NO.8 NEW MARKET STREET",中西區,2020-03-07,22.2871922,114.1497826
225,滙豪閣,WINSOME PARK,中西區,2020-03-07,22.2804968,114.1493465
226,嘉利大廈,GARLEY BUILDING,中西區,2020-03-07,22.2824683,114.1527054
227,榮華里10號榮華大廈B座,"BLOCK B, WINNER BUILDING, NO.10 WING WAH LANE",中西區,2020-03-07,22.281075,114.155202
228,德輔道西343號均益大廈第二期,"PHASE II, KWAN YICK BUILDING, NO.343 DES VOEUX ROAD WEST",中西區,2020-03-07,22.2875172,114.1380481
229,德輔道西408號,NO.408 DES VOEUX ROAD WEST,中西區,2020-03-07,22.286549,114.136238
230,樂欣大廈,RYAN MANSION,中西區,2020-03-07,22.280239,114.1511927
231,澤安閣,CHESTER COURT,中西區,2020-03-07,22.2863023,114.132393
232,錦明閣,KING MING MANSION,中西區,2020-03-07,22.2853536,114.1375952
233,龍華街20號觀龍樓E座,"BLOCK E, KWUN LUNG LAU, NO.20 LUNG WAH STREET",中西區,2020-03-07,22.2804258,114.1276087
234,薄扶林道101號學士臺2座,"BLOCK 2, ACADEMIC TERRACE, NO.101 POK FU LAM ROAD",中西區,2020-03-07,22.2822873,114.1317195
235,薄扶林道89號寶翠園5座,"BLOCK 5, THE BELCHER'S, NO.89 POK FU LAM ROAD",中西區,2020-03-07,22.2850841,114.1336239
236,THE MAYFAIR,THE MAYFAIR,中西區,2020-03-08,22.2735208,114.1573817
237,干諾道西155號高樂花園2座,"BLOCK 2, CONNAUGHT GARDEN, NO.155 CONNAUGHT ROAD WEST",中西區,2020-03-08,22.2884246,114.1416362
238,天興大廈,TIN HING MANSION,中西區,2020-03-08,22.2878376,114.1395461
239,四邑大廈,SZE YAP BUILDING,中西區,2020-03-08,22.2879634,114.1456772
240,永多樓,WING TO BUILDING,中西區,2020-03-08,22.2864878,114.1393254
241,生昌大廈,SANG CHEONG BUILDING,中西區,2020-03-08,22.2861327,114.1356908
242,再發大廈,JOY FAT HOUSE,中西區,2020-03-08,22.2860209,114.1345993
243,安泰街7號康威花園,"HONGWAY GARDEN, NO.7 ON TAI STREET",中西區,2020-03-08,22.287215,114.1497413
244,西浦,SOHO 189,中西區,2020-03-08,22.2873751,114.1450207
245,西祥街2號寶翠閣B座,"BLOCK B, BELCHER COURT, NO.2 SAI CHEUNG STREET",中西區,2020-03-08,22.2850662,114.1319268
246,均益大廈第一期,"PHASE I, KWAN YICK BUILDING",中西區,2020-03-08,22.28713,114.134428
247,明發大廈,MING FAT BUILDING,中西區,2020-03-08,22.282256,114.1550014
248,東南大廈,TONG NAM MANSION,中西區,2020-03-08,22.2858311,114.1426697
249,金坤大廈,KAM KWAN BUILDING,中西區,2020-03-08,22.2880598,114.1434012
250,南里8號,NO.8 SOUTH LANE,中西區,2020-03-08,22.2855075,114.134766
251,厚福大樓,HAU FOOK BUILDING,中西區,2020-03-08,22.286338,114.133679
252,皇后大道西242-244號,NO.242-244 QUEEN'S ROAD WEST,中西區,2020-03-08,22.286749,114.143371
253,皇后大道西409號怡景花園2座,"BLOCK 2, ELEGANT GARDEN, NO.409 QUEEN'S ROAD WEST",中西區,2020-03-08,22.2865913,114.13828
254,皇后大道西421號華明中心B座,"BLOCK B, WAH MING CENTRE, NO.421 QUEEN'S ROAD WEST",中西區,2020-03-08,22.2865041,114.1371404
255,皇后大道西423-425號創業中心C座,"BLOCK C, CHONG YIP CENTRE, NO.423-425 QUEEN'S ROAD WEST",中西區,2020-03-08,22.2860918,114.1369217
256,皇后街1號帝后華庭2座,"BLOCK 2, QUEEN'S TERRACE, NO.1 QUEEN STREET",中西區,2020-03-08,22.287046,114.14769
257,海光大廈,HAI KWANG MANSION,中西區,2020-03-08,22.2844752,114.1362482
258,海景大廈,SEA VIEW MANSION,中西區,2020-03-08,22.2881338,114.1461184
259,高街17號,NO.17 HIGH STREET,中西區,2020-03-08,22.2851891,114.1432543
260,普頓臺,PRINCETON TOWER,中西區,2020-03-08,22.28763,114.146134
261,景賜大廈,KING'S BUILDING,中西區,2020-03-08,22.2868469,114.1330897
262,新街市街8號康威花園A座,"BLOCK A, HONGWAY GARDEN, NO.8 NEW MARKET STREET",中西區,2020-03-08,22.2871922,114.1497826
263,業昌大廈,YIP CHEUNG BUILDING,中西區,2020-03-08,22.2865584,114.1350638
264,豪華大廈C座,"BLOCK C, HOOVER MANSION",中西區,2020-03-08,22.283467,114.142607
265,德輔道西402-404號創業中心A座,"BLOCK A, CHONG YIP CENTRE, NO.402-404 DES VOEUX ROAD WEST",中西區,2020-03-08,22.2866625,114.1367592
266,德輔道西432號均益大廈第一期,"PHASE I, KWAN YICK BUILDING, NO.432 DES VOEUX ROAD WEST",中西區,2020-03-08,22.287266,114.137821
267,璈珀,璈珀,中西區,2020-03-08,22.2808649,114.1412538
268,輝煌豪園,PALATIAL CREST,中西區,2020-03-08,22.2804154,114.1508492
269,適安大廈,SIK ON HOUSE,中西區,2020-03-08,22.2851625,114.1356212
270,賴恩樓,LAI YAN LAU,中西區,2020-03-08,22.2865346,114.1476036
271,薄扶林道101號學士臺1座,"BLOCK 1, ACADEMIC TERRACE, NO.101 POK FU LAM ROAD",中西區,2020-03-08,22.2824179,114.1319982
272,瀚然,AREZZO,中西區,2020-03-08,22.2822112,114.1500896
273,山村道44號,NO.44 VILLAGE ROAD,灣仔,2020-02-27,22.267764,114.184857
274,百德新街47號百德大廈,"PATERSON BUILDING, NO.47 PATERSON STREET",灣仔,2020-02-27,22.280919,114.185355
275,京士頓大廈,KINGSTON BUILDING,灣仔,2020-02-27,22.2815401,114.1857827
276,軒尼詩道310-312號,NO.310-312 HENNESSY ROAD,灣仔,2020-02-27,22.2780791,114.1780034
277,壹環,ONE WANCHAI,灣仔,2020-02-27,22.2746606,114.1742897
278,雅慧苑,AVERY HSE,灣仔,2020-02-27,22.2758694,114.173417
279,豪軒大廈,ELEGANCE TOWER,灣仔,2020-02-27,22.2680952,114.1859292
280,摩理臣山道23號,NO.23 MORRISON HILL ROAD,灣仔,2020-02-27,22.2774081,114.1803256
281,曉廬,HIGHCLIFF,灣仔,2020-02-27,22.264822,114.1839461
282,灣仔道188號廣生行大廈D座,"BLOCK D, KWONG SANG HONG BUILDING, NO.188 WAN CHAI ROAD",灣仔,2020-02-27,22.2775075,114.1777042
283,灣仔道3號尚翹峰1座,"BLOCK 1, THE ZENITH, NO.3 WAN CHAI ROAD",灣仔,2020-02-27,22.2752056,114.1741021
284,向南樓,SOUTHWARD MANSION,灣仔,2020-02-28,22.2843809,114.1920989
285,京士頓道2號京士頓大廈,"KINGSTON BUILDING, NO. 2 KINGSTON STREET",灣仔,2020-02-28,22.2815401,114.1857827
286,屈臣道15號維多利中心1座,"BLOCK 1, VICTORIA CENTRE, NO.15 WATSON ROAD",灣仔,2020-02-28,22.2873912,114.1901483
287,威景臺,VIKING VILLAS,灣仔,2020-02-28,22.2854395,114.1945779
288,琉璃街4號,NO.4 LAU LI STREET,灣仔,2020-02-28,22.2841832,114.1921393
289,勝華樓,SHING WAH MANSION,灣仔,2020-02-28,22.2798623,114.1819046
290,渣甸坊56號,NO.56 JARDINE'S CRESCENT,灣仔,2020-02-28,22.2790442,114.1853775
291,登龍閣,DRAGON RISE,灣仔,2020-02-28,22.2788334,114.1859452
292,詩禮大樓,SZE LAI BUILDING,灣仔,2020-02-28,22.278161,114.1760992
293,僑興大廈,KIU HING MANSION,灣仔,2020-02-28,22.28276,114.1927027
294,豪軒,ELEGANCE TOWER,灣仔,2020-02-28,22.2680952,114.1859292
295,銅鑼灣大廈,CAUSEWAY BAY MANSION,灣仔,2020-02-28,22.2817363,114.1852929
296,駱克道151號,NO.151 LOCKHART ROAD,灣仔,2020-02-28,22.2783779,114.1733405
297,駱克道72-86號熙華大廈B座,"BLOCK B, HAY WAH BUILDING, NO.72-86 LOCKHART ROAD",灣仔,2020-02-28,22.277807,114.171241
298,寶之大廈,PO CHI BUILDING,灣仔,2020-02-28,22.2766091,114.1801398
299,寶富大廈,PO FOO BUILDING,灣仔,2020-02-28,22.2788507,114.1833743
300,耀星華庭,SUPERNOVA STAND,灣仔,2020-02-28,22.2860374,114.1920989
301,囍滙2座,"BLOCK 2, THE AVENUE",灣仔,2020-02-28,22.2753875,114.1721236
302,四寶大廈,SZE BO BUILDING,灣仔,2020-02-29,22.2778319,114.1709903
303,吉安街4A號,NO.4A KAT ON STREET,灣仔,2020-02-29,22.2733328,114.1740208
304,成和道14-16號,NO.14-16 SING WOO ROAD,灣仔,2020-02-29,22.2679757,114.1867387
305,旭逸閣,UNIQUE TOWER,灣仔,2020-02-29,22.2695135,114.1839482
306,希雲大廈,HAVEN COURT,灣仔,2020-02-29,22.278218,114.186651
307,怡安大廈,YEE ON BUILDING,灣仔,2020-02-29,22.2810475,114.1844823
308,怡豐大廈,YEE FUNG BUILDING,灣仔,2020-02-29,22.2695284,114.1835766
309,昌業大廈,CHEONG IP BUILDING,灣仔,2020-02-29,22.2783793,114.1792806
310,星街9號星域軒1座,"BLOCK 1, STARCREST, NO.9 STAR STREET",灣仔,2020-02-29,22.2764838,114.1673676
311,皇后大道東200號囍滙2期,"BLOCK TOWER 2, THE AVENUE, NO.200 QUEEN'S ROAD EAST",灣仔,2020-02-29,22.2753875,114.1721236
312,美暉大廈,MEI FAI MANSION,灣仔,2020-02-29,22.278488,114.1724997
313,堅安大廈,KIN ON BUILDING,灣仔,2020-02-29,22.2733886,114.1745665
314,華都樓,WAH TAO BUILDING,灣仔,2020-02-29,22.2762386,114.1765404
315,萬順樓,WHITFIELD MANSION,灣仔,2020-02-29,22.2860789,114.1908682
316,嘉逸軒,LE CACHET,灣仔,2020-02-29,22.26765,114.1871992
317,聚寶閣,RICH COURT,灣仔,2020-02-29,22.2676585,114.1860381
318,樂天峯,BROADWOOD TWELVE,灣仔,2020-02-29,22.2721485,114.1863168
319,澤盈中心,CORN YAN CENTRE,灣仔,2020-02-29,22.2861973,114.1925392
320,霎東街49號,NO.49 SHARP STREET EAST,灣仔,2020-02-29,22.2776194,114.1815447
321,禮信大廈,LEISHUN COURT,灣仔,2020-02-29,22.2778509,114.1862703
322,灣仔道3號尚翹峰1 座,"BLOCK 1, THE ZENITH, NO.3 WAN CHAI ROAD",灣仔,2020-02-29,22.2752056,114.1741021
323,春園街2號,NO.2 SPRING GARDEN LANE,灣仔,2020-03-01,22.2762041,114.1729526
324,海濱大廈,RIVIERA MANSION,灣仔,2020-03-01,22.2822117,114.1846332
325,基利大廈,KELLY HSE,灣仔,2020-03-01,22.2765895,114.1701434
326,堅拿道西15號永德大廈B座,"BLOCK B, WING TAK MANSION, NO.15 CANAL ROAD WEST",灣仔,2020-03-01,22.2779461,114.1808572
327,港灣道28號灣景中心大廈B座,"BLOCK B, CAUSEWAY CENTRE, NO.28 HARBOUR ROAD",灣仔,2020-03-01,22.2802899,114.1761456
328,港灣道28號灣景中心大廈C座,"BLK C, CAUSEWAY CENTRE, NO.28 HARBOUR ROAD",灣仔,2020-03-01,22.2800681,114.1763082
329,滿峯台,MONTICELLO,灣仔,2020-03-01,22.2746373,114.1682965
330,銀星閣,SILVER STAR COURT,灣仔,2020-03-01,22.2675295,114.1843662
331,銅鑼灣道126號,NO.126 TUNG LO WAN ROAD,灣仔,2020-03-01,22.280573,114.192224
332,慧賢軒,BRILLIANT COURT,灣仔,2020-03-01,22.273891,114.174701
333,藍塘道79號,NO.79 BLUE POOL ROAD,灣仔,2020-03-01,22.2651052,114.188964
334,皇后大道東98號,NO.98 QUEEN'S ROAD EAST,灣仔,2020-03-02,22.2763,114.1699841
335,美城花園大廈,MAYSON GARDEN BUILDING,灣仔,2020-03-02,22.2849632,114.19117
336,莊士敦道137-139號,137-139 JOHNSTON ROAD,灣仔,2020-03-02,22.2768263,114.1737769
337,富豐樓,FU FUNG BUILDING,灣仔,2020-03-02,22.2849295,114.1920757
338,華爾大廈,FAIRVIEW MANSION,灣仔,2020-03-02,22.2814102,114.1849467
339,慧蘭閣,VALIANT COURT,灣仔,2020-03-02,22.2755401,114.1739163
340,摩頓臺11號灣景樓,"BAY VIEW MANSION, NO.11 MORETON TERRACE",灣仔,2020-03-02,22.2793858,114.1889408
341,勵志大廈,RICH BUILDING,灣仔,2020-03-02,22.2779103,114.192633
342,文安樓,MAN ON HOUSE,灣仔,2020-03-03,22.2767688,114.1767726
343,玉泉樓,NO.220 JOHNSTON ROAD,灣仔,2020-03-03,22.277483,114.1764591
344,立德大廈,LAP TAK BUILDING,灣仔,2020-03-03,22.2785437,114.1749148
345,告士打道252號伊利莎伯大廈B座,"BLOCK B, ELIZABETH HOUSE, NO.252 GLOUCESTER ROAD",灣仔,2020-03-03,22.28079,114.181134
346,恒安大廈,DIAMOND BUILDING,灣仔,2020-03-03,22.2781791,114.1795825
347,泰港大廈,THAI KONG BUILDING,灣仔,2020-03-03,22.2796886,114.1826328
348,瑆華,THE WARREN,灣仔,2020-03-03,22.278415,114.191428
349,樂活道1號,NO.1 BROADWOOD ROAD,灣仔,2020-03-03,22.2737475,114.1841223
350,霎西街5號,NO.5 SHARP STREET WEST,灣仔,2020-03-03,22.2778403,114.1804881
351,太原街33號囍滙5座,"BLOCK 5, THE AVENUE, NO.33 TAI YUEN STREET",灣仔,2020-03-04,22.2751741,114.1732559
352,永興樓,WING HING BUILDING,灣仔,2020-03-04,22.2760606,114.1729642
353,皇后大道東200號囍滙2座,"BLOCK 2, THE AVENUE, NO.200 QUEEN'S ROAD EAST",灣仔,2020-03-04,22.2753875,114.1721236
354,英皇道1號栢景臺2座,"BLOCK 2, PARK TOWERS, NO.1 KING'S ROAD",灣仔,2020-03-04,22.2826811,114.1918202
355,桂成里14號誠和閣2座,"BLOCK 2, SHERWOOD COURT, NO.14 KWAI SING LANE",灣仔,2020-03-04,22.2673065,114.1866005
356,港灣道1號,1 HARBOUR ROAD,灣仔,2020-03-04,22.2810524,114.1731035
357,謝斐道138-146號建利大廈A座,"BLOCK A, KIN LEE BUILDING, NO.138-146 JAFFE ROAD",灣仔,2020-03-04,22.2785778,114.1734518
358,仁美大廈,YEN MAY BUILDING,灣仔,2020-03-05,22.2757695,114.1715592
359,年威閣,LINWAY COURT,灣仔,2020-03-05,22.27413,114.17392
360,怡和街19-31號樂聲大廈A座,"BLOCK A, LOK SING CENTRE, NO.19-31 YEE WO STREET",灣仔,2020-03-05,22.2797597,114.1868144
361,怡明閣,EASTMAN COURT,灣仔,2020-03-05,22.278125,114.175774
362,東曦大廈,TUNG HEY MANSION,灣仔,2020-03-05,22.277449,114.168226
363,恒德大廈,HANG TAK BUILDING,灣仔,2020-03-05,22.2759379,114.1683429
364,紀雲峰,THE ALTITUDE,灣仔,2020-03-05,22.2671013,114.1847535
365,海城洋樓,HOI SHING BUILDING,灣仔,2020-03-05,22.2863436,114.1912629
366,特麗樓,DANDENONG MANSION,灣仔,2020-03-05,22.2800245,114.1797682
367,港灣道28號灣景中心大廈C座,"BLOCK C, CAUSEWAY CENTRE, NO.28 HARBOUR ROAD",灣仔,2020-03-05,22.2800681,114.1763082
368,華高大廈,FLORIDA MANSION,灣仔,2020-03-05,22.2822718,114.1855729
369,敬誠閣,KESWICK COURT,灣仔,2020-03-05,22.278673,114.1864097
370,榮安大廈,WING ON BUILDING,灣仔,2020-03-05,22.2783067,114.1757276
371,樂中樓,LOK CHUNG BUILDING,灣仔,2020-03-05,22.2794645,114.1802791
372,駱克道242號,NO.242 LOCKHART ROAD,灣仔,2020-03-05,22.2783354,114.1760992
373,聯發大廈,LUEN FAT MANSION,灣仔,2020-03-05,22.2766041,114.170758
374,禮雲大樓2座,"BLOCK 2, LEI WEN COURT",灣仔,2020-03-05,22.2775135,114.1869902
375,友光大廈,YAU KWONG BUILDING,灣仔,2020-03-06,22.2790024,114.1808597
376,永豐街18號,18 WING FUNG STREET,灣仔,2020-03-06,22.2765421,114.1680726
377,百德新街47號百德大廈A座,"BLOCK A, PATERSON BUILDING, NO.47 PATERSON STREET",灣仔,2020-03-06,22.280919,114.185355
378,怡和街19號樂聲大廈,"LOK SING CENTRE, NO.19 YEE WO STREET",灣仔,2020-03-06,22.2797079,114.1868973
379,東城,EAST TOWN BUILDING,灣仔,2020-03-06,22.2785189,114.1706419
380,金港大廈,GOLD HARBOUR MANSION,灣仔,2020-03-06,22.2760249,114.170491
381,皇后大道東222號,222 QUEEN'S ROAD EAST,灣仔,2020-03-06,22.2748111,114.1725926
382,海外大廈,OVERSEAS BUILDING,灣仔,2020-03-06,22.279453,114.1807668
383,堅拿道西12號,NO.12 CANAL ROAD WEST,灣仔,2020-03-06,22.2784901,114.1809293
384,摩理臣山道8-10號,NO.8-10 MORRISON HILL ROAD,灣仔,2020-03-06,22.2775395,114.1797682
385,樂苑大廈,HAPPY MANSION,灣仔,2020-03-06,22.2679567,114.1858059
386,大坑徑23號渣甸山名門I座,"BLOCK I, THE LEGEND AT JARDINE'S LOOKOUT, NO.23 TAI HANG",灣仔,2020-03-07,22.275265,114.195006
387,山村道8號,NO.8 VILLAGE ROAD,灣仔,2020-03-07,22.2673759,114.1836114
388,利景閣,LEE KING MANSION,灣仔,2020-03-07,22.2848429,114.1915184
389,利群道9號,NO.9 LI KWAN AVENUE,灣仔,2020-03-07,22.2764853,114.1932042
390,秀華坊8號海華苑2座,"BLOCK 2, HOOVER TOWERS, NO.8 SAU WA FONG",灣仔,2020-03-07,22.275814,114.1692125
391,宜興樓,YEE HING BUILDING,灣仔,2020-03-07,22.2789279,114.1792574
392,星輝苑,STARLIGHT GARDEN,灣仔,2020-03-07,22.276173,114.168158
393,美漢大廈,MALAHON APARTMENTS,灣仔,2020-03-07,22.2812524,114.1831818
394,桂成里12號誠和閣2座,"BLOCK 2, SHERWOOD COURT, NO.12 KWAI SING LANE",灣仔,2020-03-07,22.2675055,114.1864561
395,壹鑾,REGENT HILL,灣仔,2020-03-07,22.2677566,114.1869978
396,華景樓,GRAND VIEW MANSION,灣仔,2020-03-07,22.2746197,114.1786536
397,華發大廈,WAH FAT MANSION,灣仔,2020-03-07,22.2799074,114.1805113
398,逸園,HARMONY,灣仔,2020-03-07,22.265784,114.178946
399,黃泥涌道137號,NO.137 WONG NAI CHUNG ROAD,灣仔,2020-03-07,22.2756705,114.1829845
400,新唐大廈,NEWTOWN MANSION,灣仔,2020-03-07,22.2822647,114.18584
401,維峯,THE HEMISPHERES,灣仔,2020-03-07,22.2857379,114.1911166
402,樂高大廈,LOK GO BUILDING,灣仔,2020-03-07,22.2792655,114.1760063
403,駱克道72-86號熙華大廈,"HAY WAH BUILDING, NO.72-86 LOCKHART ROAD",灣仔,2020-03-07,22.277807,114.171241
404,謝斐道254號杜智臺B座,"BLOCK B, TONNOCHY TOWERS, NO.254 JAFFE ROAD",灣仔,2020-03-07,22.278963,114.177015
405,灣景中心大廈灣景中心大廈Ａ座,"CAUSEWAY CENTRE BLOCK A, CAUSEWAY CENTRE",灣仔,2020-03-07,22.2803016,114.1762934
406,大坑道5號光明臺1座,"BLOCK 1, ILLUMINATION TERRACE, NO.5 TAI HANG ROAD",灣仔,2020-03-08,22.2775651,114.1927491
407,山光道24號,NO.24 SHAN KWONG ROAD,灣仔,2020-03-08,22.2668642,114.1848538
408,尚匯,THE GLOUCESTER,灣仔,2020-03-08,22.2802111,114.1794799
409,東興大廈,TUNG HING BUILDING,灣仔,2020-03-08,22.2768301,114.1736144
410,皇后大道東200號囍滙1座,"BLOCK 1, THE AVENUE, NO.200 QUEEN'S ROAD EAST",灣仔,2020-03-08,22.2753875,114.1721236
411,皇后大道東381號,NO.381 QUEEN'S ROAD EAST,灣仔,2020-03-08,22.2746417,114.1785143
412,香港大廈,HONG KONG MANSION,灣仔,2020-03-08,22.286069,114.1913898
413,修頓花園,SOUTHORN GARDEN,灣仔,2020-03-08,22.277196,114.173143
414,軒尼詩道459號,NO.459 HENNESSY ROAD,灣仔,2020-03-08,22.2799276,114.182044
415,偉德大廈,偉德大廈,灣仔,2020-03-08,22.2796274,114.1807668
416,梅馨街8號,NO.8 MUI HING STREET,灣仔,2020-03-08,22.2665474,114.1872108
417,誠和閣2座,"TOWER 2, SHERWOOD COURT",灣仔,2020-03-08,22.2675055,114.1864561
418,廣生行大廈298電腦特區,"298 COMPUTER ZONE, KWONG SANG HONG BUILDING",灣仔,2020-03-08,22.2779583,114.177366
419,廣生行大廈298電腦特區A座,"BLOCK A, 298 COMPUTER ZONE, KWONG SANG HONG BUILDING",灣仔,2020-03-08,22.2779583,114.177366
420,廣安大廈,KWONG ON BUILDING,灣仔,2020-03-08,22.279808,114.1850164
421,勵德邨邨榮樓,"TSUEN WING LAU, LAI TAK TSUEN",灣仔,2020-03-08,22.2775917,114.1947926
422,勵德邨勵潔樓,"LAI KIT LAU, LAI TAK TSUEN",灣仔,2020-03-08,22.2793947,114.1938637
423,囍滙3座,"BLOCK 3, THE AVENUE",灣仔,2020-03-08,22.2753875,114.1721236
424,灣仔道60號,NO.60 WAN CHAI ROAD,灣仔,2020-03-08,22.2760092,114.1744129
425,天順樓,CHATON HOUSE,東區,2020-02-27,22.2910253,114.203454
426,太古城安盛台寧安閣,"ON SHING TERRACE, LING ON MANSION, TAIKOO SHING",東區,2020-02-27,22.2860121,114.2148048
427,太古城金山閣高山臺,"KAO SHAN TERRACE, KAM SHAN MANSION, TAIKOO SHING",東區,2020-02-27,22.2856258,114.2183791
428,太古城寧安閣安盛臺,"ON SHING TERRACE, NING ON MANSION, TAIKOO SHING",東區,2020-02-27,22.2860121,114.2148048
429,太古城寶安閣安盛臺,"ON SHING TERRACE, PO ON MANSION, TAIKOO SHING",東區,2020-02-27,22.2864352,114.2148867
430,百福花園百利閣,"PAK LEE COURT, BEDFORD GARDENS",東區,2020-02-27,22.2903051,114.2041506
431,百福花園康福閣J座,"BLOCK J, HONG FOOK COURT, BEDFORD GARDENS",東區,2020-02-27,22.289215,114.2044292
432,和富道51號和富中心16座,"BLOCK 16, PROVIDENT CENTRE, NO.51 WHARF ROAD",東區,2020-02-27,22.2926419,114.1977649
433,東發大廈A座,"BLOCK A, TUNG FAT BUILDING",東區,2020-02-27,22.2901289,114.2002778
434,東濤苑曉濤閣,"HIU TAO HOUSE, TUNG TAO COURT",東區,2020-02-27,22.282388,114.225959
435,皇子薈,PRINCETON RESIDENCE,東區,2020-02-27,22.2918671,114.1971718
436,美都大廈,MIDO APARTMENTS,東區,2020-02-27,22.2902273,114.1969057
437,英皇道430號新都城大廈B座,"BLOCK B, METROPOLE BUILDING, NO.430 KING'S ROAD",東區,2020-02-27,22.290468,114.199742
438,英皇道989號新威園A座,"BLOCK A, SUNWAY GARDENS, NO.989 KING'S ROAD",東區,2020-02-27,22.2858674,114.2114186
439,泰民街8號康翠臺4座,"BLOCK 4, GREENWOOD TERRACE, NO.8 TAI MAN STREET",東區,2020-02-27,22.2674093,114.234615
440,基利坊15號南豐新邨12座,"BLOCK 12, NAN FUNG SUN CHUEN, NO.15 GREIG CRESCENT",東區,2020-02-27,22.2830115,114.214739
441,康威大廈,EVERWIN BUILDING,東區,2020-02-27,22.2905226,114.1989027
442,華昇大廈,WAH SING BUILDING,東區,2020-02-27,22.2801928,114.2239689
443,華海大廈,HUA HAI BUILDING,東區,2020-02-27,22.2733889,114.2360778
444,新成街8號新成中心,"SUN SING CENTRE, NO.8 SUN SING STREET",東區,2020-02-27,22.279525,114.224628
445,新都城大廈C座,"BLOCK C, METROPOLE BUILDING",東區,2020-02-27,22.2905261,114.1994101
446,漁灣邨漁豐樓,"YUE FUNG HSE, YUE WAN ESTATE",東區,2020-02-27,22.26608,114.2420128
447,興華(一)邨興翠樓,"HING TSUI HSE, HING WAH (I) ESTATE",東區,2020-02-27,22.2627347,114.2348239
448,錦屏街23號東發大廈A座,"BLOCK A, TUNG FAT BUILDING, NO. 23 KAM PING STREET",東區,2020-02-27,22.2901289,114.2002778
449,環翠邨貴翠樓,"KWAI TSUI HSE, WAN TSUI ESTATE",東區,2020-02-27,22.2624715,114.2385622
450,鴻利大廈,HUNG LEE BUILDING,東區,2020-02-27,22.2772303,114.2269294
451,寶馬山道1號寶馬山花園1座,"BLOCK 1, PACIFIC PALISADES, NO.1 BRAEMAR HILL ROAD",東區,2020-02-27,22.2876521,114.2023161
452,耀明大廈,YIU MING BUILDING,東區,2020-02-27,22.2915996,114.1976023
453,小西灣邨瑞益樓,"SUI YICK HSE, SIU SAI WAN ESTATE",東區,2020-02-28,22.2632856,114.2480353
454,太古城明宮閣金殿臺,"KAM DIN TERRACE, MING KUNG MANSION, TAIKOO SHING",東區,2020-02-28,22.2864569,114.2159697
455,百福大廈,PAK FUK BUILDING,東區,2020-02-28,22.2898646,114.1993439
456,明秀大廈,MING SAU BUILDING,東區,2020-02-28,22.2915047,114.1979274
457,東康樓,TUNG HONG BUILDING,東區,2020-02-28,22.2784419,114.2304355
458,金基大廈,KAM KEY MANSION,東區,2020-02-28,22.2783547,114.2304355
459,柏匯,PARKER 33,東區,2020-02-28,22.2814758,114.2209714
460,炮台山道4號光超台,"KWONG CHIU TERRACE, NO.4 FORTRESS HILL ROAD",東區,2020-02-28,22.288959,114.194831
461,英皇道560號健威花園F座,"BLOCK F, HEALTHY GARDENS, NO.560 KING'S ROAD",東區,2020-02-28,22.2913813,114.2034075
462,柴灣連城道4-12號仁樂大廈A座,"BLOCK A, YEN LOK BUILDING, NO.4 LIN SHING ROAD",東區,2020-02-28,22.2614859,114.2359977
463,泰民街12號康翠臺6座,"BLOCK 6, GREENWOOD TERRACE, NO.12 TAI MAN STREET",東區,2020-02-28,22.2673718,114.2354044
464,馬寶道44-46號,NO.44-46 MARBLE ROAD,東區,2020-02-28,22.291881,114.201132
465,馬寶道46號,NO.46 MARBLE ROAD,東區,2020-02-28,22.2917928,114.2012828
466,盛泰道100號杏花邨47座,"BLOCK 47, HENG FA CHUEN, NO.100 SHING TAI ROAD",東區,2020-02-28,22.2761158,114.241302
467,連城道4-12號仁樂大廈A座,"BLOCK A, YEN LOK BUILDING, NO.4-12 LIN SHING ROAD",東區,2020-02-28,22.2614859,114.2359977
468,富利來大廈,FU LEE LOY MANSION,東區,2020-02-28,22.288381,114.1917506
469,鳳山閣,"FOONG SHAN MANSION, TAIKOO SHING",東區,2020-02-28,22.2856684,114.2187561
470,模範邨民樂樓,"MAN LOK HSE, MODEL HOUSING ESTATE",東區,2020-02-28,22.2903431,114.2083303
471,繼園街1號柏蔚山3座,"BLOCK 3, FLEUR PAVILIA, NO.1 KAI YUEN STREET",東區,2020-02-28,22.290069,114.2036932
472,大石街26號,NO.26 TAI SHEK STREET,東區,2020-02-29,22.2819803,114.2210665
473,太古城南山閣高山臺,"KAO SHAN TERRACE, NAN SHAN MANSION, TAIKOO SHING",東區,2020-02-29,22.285279,114.220157
474,太古城綠楊閣海景花園,"HARBOUR VIEW GARDENS, WILLOW MANSION, TAIKOO SHING",東區,2020-02-29,22.2876642,114.214948
475,太古城銀栢閣海景花園,"HARBOUR VIEW GARDENS, JUNIPER MANSION, TAIKOO SHING",東區,2020-02-29,22.287637,114.216383
476,吉勝街12號,12 KUT SHING STREET,東區,2020-02-29,22.2650002,114.2353812
477,成安大廈,SHING ON BUILDING,東區,2020-02-29,22.2810926,114.2208227
478,成安大樓,SHING ON BUILDING,東區,2020-02-29,22.2810926,114.2208227
479,成明閣,SENG MING COURT,東區,2020-02-29,22.290958,114.19815
480,形品,LIME HABITAT,東區,2020-02-29,22.289009,114.19908
481,和富道31號和富中心6座,"BLOCK 6, PROVIDENT CENTRE, NO.31 WHARF ROAD",東區,2020-02-29,22.2924646,114.1958715
482,東駿苑銀駿閣B座,"BLOCK B, NGAN CHUN HSE, TUNG CHUN COURT",東區,2020-02-29,22.2772233,114.2225683
483,美輪大廈,MAYLUN APARTMENTS,東區,2020-02-29,22.2907643,114.2002727
484,英皇道38號新都城大廈D座,"BLK D, METROPOLE BUILDING, NO.38 KING'S ROAD",東區,2020-02-29,22.2905261,114.1994101
485,英皇道989號新威園F座,"BLOCK F, SUNWAY GARDENS, NO.989 KING'S ROAD",東區,2020-02-29,22.2857028,114.2123242
486,海寧大廈,HOI NING BUILDING,東區,2020-02-29,22.280814,114.2225874
487,益昌大廈,YICK CHEONG BUILDING,東區,2020-02-29,22.2842028,114.2123028
488,健康邨紅桃樓,"HUNG TO LAU, HEALTHY VILLAGE",東區,2020-02-29,22.290213,114.206272
489,康盛街5-7號康怡花園G座,"BLOCK G, KORNHILL, NO.5-7 HONG SHING STREET",東區,2020-02-29,22.2817633,114.2164341
490,盛泰道100號杏花邨15座,"BLOCK 15, HENG FA CHUEN, NO.100 SHING TAI ROAD",東區,2020-02-29,22.2781338,114.2373548
491,盛泰道100號杏花邨35座,"BLOCK 35, HENG FA CHUEN, NO.100 SHING TAI ROAD",東區,2020-02-29,22.2781554,114.2398392
492,連翠邨連翠樓,"LIN TSUI HOUSE, LIN TSUI ESTATE",東區,2020-02-29,22.2608388,114.2361358
493,富澤花園富邦閣,"FU BON COURT, FORTRESS GARDEN",東區,2020-02-29,22.2875939,114.1937012
494,富澤花園富威閣,"FU WAI COURT, FORTRESS GARDEN",東區,2020-02-29,22.2874192,114.1939798
495,渣華道13A號,NO.13A JAVA ROAD,東區,2020-02-29,22.2914946,114.1958491
496,逸濤灣冬和軒(第4座),"L'HIVER (TOWER 4), LES SAISONS",東區,2020-02-29,22.2835574,114.2246286
497,愛禮街2號 愛蝶灣9座,"BLOCK BLOCK 9, ALDRICH GARDEN, NO.2 OI LAI STREET",東區,2020-02-29,22.2818763,114.2289727
498,愛禮街2號愛蝶灣7座,"BLOCK 7, ALDRICH GARDEN, NO.2 OI LAI STREET",東區,2020-02-29,22.281513,114.2290656
499,嘉信大廈,CARSON MANSION,東區,2020-02-29,22.2875664,114.1924304
500,歌連臣角道123號,NO.123 CAPE COLLINSON ROAD,東區,2020-02-29,22.2506066,114.2536773
501,漢宮大廈,HAN PALACE BUILDING,東區,2020-02-29,22.2914864,114.2008068
502,錦明園,KAM MING YUEN,東區,2020-02-29,22.2907064,114.2000869
503,錦屏街32號幸福大樓B座,"BLK B, FORTUNA BUILDING, NO.32 KAM PING STREET",東區,2020-02-29,22.2900528,114.1999899
504,錦屏街34號幸福大樓B座,"BLOCK B, FORTUNA BUILDING, NO. 34 KAM PING STREET",東區,2020-02-29,22.2900382,114.1999012
505,繼園街1號柏蔚山2座,"BLOCK 2, FLEUR PAVILIA, NO.1 KAI YUEN STREET",東區,2020-02-29,22.290069,114.2036932
506,怡翠苑暢怡閣(A座),"CHEONG YEE HSE (BLK A), YEE TSUI COURT",東區,2020-03-01,22.2648872,114.2387594
507,南華大廈,NAM WAH BUILDING,東區,2020-03-01,22.2792398,114.2262096
508,建華街39號楓林花園II座,"BLOCK II, MAPLE GARDENS, NO.39 KIN WAH STREET",東區,2020-03-01,22.2896,114.198033
509,英皇道294號五洲大廈,"CONTINENTAL MANSION, NO.294 KING'S ROAD",東區,2020-03-01,22.2898186,114.1954892
510,英皇道388號,388 KING'S ROAD,東區,2020-03-01,22.290485,114.198266
511,柴灣道233號新翠花園4座,"BLOCK 4, NEW JADE GARDEN, NO.233 CHAI WAN ROAD",東區,2020-03-01,22.264079,114.237294
512,泰民街15號樂翠臺1座,"BLK 1, NEPTUNE TERRACE, NO.15 TAI MAN STREET",東區,2020-03-01,22.268183,114.2345453
513,啟協大廈,KENTHILL MANSION,東區,2020-03-01,22.2917072,114.2000289
514,康怡花園H座,"BLK H, KORNHILL",東區,2020-03-01,22.2820577,114.2163644
515,愛東邨愛澤樓,"OI CHAK HSE, OI TUNG ESTATE",東區,2020-03-01,22.2814714,114.2276724
516,新都城大廈,METROPOLE BUILDING,東區,2020-03-01,22.2905261,114.1994101
517,筲箕灣廣場麗怡苑(第2座)2座,"BLOCK 2, LAI YEE COURT (TOWER 2), SHAUKEIWAN PLAZA",東區,2020-03-01,22.2770213,114.2295135
518,裕益大廈,YUE YICK BUILDING,東區,2020-03-01,22.2908801,114.1977416
519,漁灣邨漁安樓,"YUE ON HSE, YUE WAN ESTATE",東區,2020-03-01,22.265485,114.2416967
520,糖水道12號,12 TONG SHUI ROAD,東區,2020-03-01,22.2916539,114.1988539
521,興東邨興豐樓,"HING FUNG HSE, HING TUNG ESTATE",東區,2020-03-01,22.2820349,114.2196849
522,麗景樓,LAI KING MANSION,東區,2020-03-01,22.3441275,114.178282
523,大興樓,TAI HING BUILDING,東區,2020-03-02,22.2913738,114.1976196
524,太古城碧藤閣海景花園,"HARBOUR VIEW GARDENS, WISTERIA MANSION, TAIKOO SHING",東區,2020-03-02,22.2876425,114.2200564
525,太古城龍山閣高山臺,"KAO SHAN TERRACE, LOONG SHAN MANSION, TAIKOO SHING",東區,2020-03-02,22.2856244,114.2190347
526,太康樓,TAI HONG HSE,東區,2020-03-02,22.2829884,114.220962
527,太興樓,TAI HING HSE,東區,2020-03-02,22.2824186,114.2126957
528,怡翠苑暢怡閣A座,"BLOCK A, CHEONG YEE HSE, YEE TSUI COURT",東區,2020-03-02,22.2648872,114.2387594
529,建華花園,KINGSWAY GARDEN,東區,2020-03-02,22.2890074,114.1963484
530,恒英大廈,HANG YING HOUSE,東區,2020-03-02,22.2901443,114.1964645
531,美麗閣,MARY COURT,東區,2020-03-02,22.2904365,114.1980667
532,英皇道395號僑冠大廈A座,"BLOCK A, KIU KWAN MANSION, NO.395 KING'S ROAD",東區,2020-03-02,22.291294,114.199368
533,英皇道430號新都城大廈A座,"BLOCK A, METROPOLE BUILDING, NO.430 KING'S ROAD",東區,2020-03-02,22.290468,114.199742
534,英華閣,YING WAH COURT,東區,2020-03-02,22.2911949,114.2015499
535,書局街16號樂嘉中心1座,"BLOCK 1, ROCA CENTRE, NO.16 SHU KUK STREET",東區,2020-03-02,22.291054,114.200809
536,海灣街4-6號,NO.4-6 HOI WAN STREET,東區,2020-03-02,22.2878725,114.2114186
537,康盛街13-15號康怡花園E座,"BLOCK E, KORNHILL, NO.13-15 HONG SHING STREET",東區,2020-03-02,22.2807034,114.2159697
538,清華大廈,CHING WAH BUILDING,東區,2020-03-02,22.2890967,114.1975791
539,富澤花園富慧閣,"FULLVIEW COURT, FORTRESS GARDEN",東區,2020-03-02,22.2871134,114.1945371
540,惠利大廈,WAI LEE BUILDING,東區,2020-03-02,22.2851546,114.2120687
541,景翠苑,KING TSUI COURT,東區,2020-03-02,22.2600819,114.2306445
542,愛東邨愛逸樓,"OI YAT HSE, OI TUNG ESTATE",東區,2020-03-02,22.2800474,114.2278582
543,電氣道233號城市花園10座,"BLOCK 10, CITY GARDEN, NO.233 ELECTRIC ROAD",東區,2020-03-02,22.2906916,114.1931425
544,僑冠大廈B座,"BLOCK B, KIU KWAN MANSION",東區,2020-03-02,22.2912958,114.1993903
545,嘉裕大廈,KA YU BUILDING,東區,2020-03-02,22.2774794,114.2279743
546,興民邨民富樓,"MAN FU HSE, HING MAN ESTATE",東區,2020-03-02,22.2675212,114.2325252
547,濱海街21號,NO.21 PAN HOI STREET,東區,2020-03-02,22.2865325,114.2113663
548,環翠邨利翠樓,"LEE TSUI HSE, WAN TSUI ESTATE",東區,2020-03-02,22.2631461,114.2392587
549,寶利大廈,PO LEE BUILDING,東區,2020-03-02,22.2853722,114.2123474
550,耀東邨耀昌樓,"YIU CHEONG HSE, YIU TUNG ESTATE",東區,2020-03-02,22.2768253,114.2256291
551,小西灣邨瑞喜樓,"SUI HEI HSE, SIU SAI WAN ESTATE",東區,2020-03-03,22.2608409,114.2489504
552,小西灣道18號富景花園10座,"BLOCK 10, FULLVIEW GARDEN, NO.18 SIU SAI WAN ROAD",東區,2020-03-03,22.2627062,114.2517038
553,東熹苑華熹閣,"WAH HEI HSE, TUNG HEI COURT",東區,2020-03-03,22.2798124,114.2194063
554,東霖苑,TUNG LAM COURT,東區,2020-03-03,22.2802467,114.2205208
555,炮台山利都樓,"RIALTO MANSION, FORTRESS HILL",東區,2020-03-03,22.2891703,114.1939334
556,英皇道238號康澤花園D座,"BLOCK D, FORTRESS METRO TOWER, NO.238 KING'S ROAD",東區,2020-03-03,22.2884944,114.1940727
557,英皇道294號五洲大廈,CONTINENTAL BUILDING,東區,2020-03-03,22.2898186,114.1954892
558,柴灣戲院大廈,CHAI WAN CINEMA BUILDING,東區,2020-03-03,22.2626599,114.2364028
559,泰民街10號康翠臺5座,"BLOCK 5, GREENWOOD TERRACE, NO.10 TAI MAN STREET",東區,2020-03-03,22.2676337,114.2351258
560,海景樓,OCEANIC MANSION,東區,2020-03-03,22.2846755,114.2117901
561,基利路32號南豐新邨1座,"BLOCK 1, NAN FUNG SUN CHUEN, NO.32 GREIG ROAD",東區,2020-03-03,22.2830713,114.2135316
562,康東邨康瑞樓,"HONG SHUI HSE, HONG TUNG ESTATE",東區,2020-03-03,22.2846168,114.222657
563,清華街7-11號,NO.7-11 CHING WAH STREET,東區,2020-03-03,22.2890423,114.1973792
564,莊士維港軒,THE HARBOURSIDE,東區,2020-03-03,22.2915006,114.195466
565,景興閣,KINGS COURT,東區,2020-03-03,22.2898625,114.1981132
566,嘉華洋樓,KAVA MANSION,東區,2020-03-03,22.2900125,114.1973004
567,嘉興大廈,KA HING BUILDING,東區,2020-03-03,22.2919629,114.1975094
568,滿華樓,MOON WAH BUILDING,東區,2020-03-03,22.2616069,114.233572
569,福昌樓,FOK CHEONG BUILDING,東區,2020-03-03,22.2844858,114.2124403
570,翠樂邨翠祿樓,"TSUI LUK HSE, TSUI LOK ESTATE",東區,2020-03-03,22.2674335,114.2403965
571,曉峯,MOUNT EAST,東區,2020-03-03,22.28952,114.1989027
572,興東邨興東樓,"HING FUNG HSE, HING TUNG ESTATE",東區,2020-03-03,22.2818525,114.2197557
573,繼園街1號柏蔚山1座,"BLOCK 1, FLEUR PAVILIA, NO.1 KAI YUEN STREET",東區,2020-03-03,22.290069,114.2036932
574,小西灣邨瑞發樓,"SUI FAT HSE, SIU SAI WAN ESTATE",東區,2020-03-04,22.263661,114.249036
575,丹拿道18號丹拿花園5座,"BLOCK 5, TANNER GARDEN, NO.18 TANNER ROAD",東區,2020-03-04,22.2901183,114.2021169
576,月園街1號,NO.1 YUET YUEN STREET,東區,2020-03-04,22.2914024,114.1960817
577,百福花園鴻福閣B座,"BLOCK B, HUNG FOOK COURT, BEDFORD GARDENS",東區,2020-03-04,22.289229,114.204418
578,延齡大廈,ELLEN BUILDING,東區,2020-03-04,22.2806596,114.2234591
579,明威大廈,MAINWAY MANSION,東區,2020-03-04,22.2907947,114.1963484
580,威德閣,VICTOR COURT,東區,2020-03-04,22.2883081,114.1919364
581,英皇道395號僑冠大廈B座,"BLOCK B, KIU KWAN MANSION, NO.395 KING'S ROAD",東區,2020-03-04,22.2912958,114.1993903
582,英皇道461號,NO.461 KING'S ROAD,東區,2020-03-04,22.291532,114.201178
583,英皇道484號,NO. 484 KING'S ROAD,東區,2020-03-04,22.2917296,114.2018556
584,海峰中心C座,"BLOCK C, HOI FUNG CENTRE",東區,2020-03-04,22.279525,114.224628
585,益新洋樓,AIK SAN MANSION,東區,2020-03-04,22.2908404,114.1975791
586,基利坊19號南豐新邨10座,"BLOCK 10, NAN FUNG SUN CHUEN, NO.19 GREIG CRESCENT",東區,2020-03-04,22.2822887,114.2147623
587,富蘭苑,FULHAM COURT,東區,2020-03-04,22.2912205,114.198624
588,愛禮街2號愛蝶灣8座,"BLOCK 8, ALDRICH GARDEN, NO.2 OI LAI STREET",東區,2020-03-04,22.2814266,114.2285083
589,新翠花園4座,"BLOCK 4, NEW JADE GARDEN",東區,2020-03-04,22.264079,114.237294
590,電氣道233號城市花園9座,"BLOCK 9, CITY GARDEN, NO.233 ELECTRIC ROAD",東區,2020-03-04,22.2912068,114.194159
591,僑華大廈,KIU WAH BUILDING,東區,2020-03-04,22.2924729,114.2020143
592,維港頌第三座,"TOWER 3, HARBOUR GLORY",東區,2020-03-04,22.2898583,114.1921584
593,豐華大廈,FUNG WAH MANSION,東區,2020-03-04,22.2894931,114.1956891
594,麗宮大廈,MAJESTIC APARTMENTS,東區,2020-03-04,22.290537,114.1961858
595,小西灣邨瑞隆樓,"SUI LUNG HSE, SIU SAI WAN ESTATE",東區,2020-03-05,22.262319,114.250171
596,小西灣道28號藍灣半島7座,"BLOCK 7, ISLAND RESORT, NO.28 SIU SAI WAN ROAD",東區,2020-03-05,22.2665901,114.2514806
597,仁德大廈,YEN DACK BUILDING,東區,2020-03-05,22.2915695,114.1983454
598,太古城美菊閣海景花園,"HARBOUR VIEW GARDENS, MARIGOLD MANSION, TAIKOO SHING",東區,2020-03-05,22.2876302,114.2184775
599,太古城海星閣星輝臺,"SING FAI TERRACE, HOI SING MANSION, TAIKOO SHING",東區,2020-03-05,22.286823,114.2192524
600,太康街38號嘉亨灣2座,"BLOCK 2, GRAND PROMENADE, NO.38 TAI HONG STREET",東區,2020-03-05,22.2852246,114.2243288
601,西灣河街137號,NO.137 SAI WAN HO STREET,東區,2020-03-05,22.2818783,114.2212987
602,杏翠苑翠晶閣A座,"BLOCK A, TSUI CHING HSE, HANG TSUI COURT",東區,2020-03-05,22.2673409,114.2416735
603,和富道29號和富中心5座,"BLOCK 5, PROVIDENT CENTRE, NO.29 WHARF ROAD",東區,2020-03-05,22.2922316,114.1960506
604,和富道41號和富中心11座,"BLOCK 11, PROVIDENT CENTRE, NO.41 WHARF ROAD",東區,2020-03-05,22.2926957,114.1968932
605,怡昇洋樓,DELIGHTFUL MANSION,東區,2020-03-05,22.2898768,114.1982989
606,東欣苑歡欣閣,"FOON YAN HSE, TUNG YAN COURT",東區,2020-03-05,22.280457,114.221465
607,東熹苑耀熹閣D座,"BLOCK D, YIU HEI HSE, TUNG HEI COURT",東區,2020-03-05,22.2806556,114.2190347
608,阿公岩道23號明華大廈B座,"BLOCK B, MING WAH DAI HA, NO.23 A KUNG NGAM ROAD",東區,2020-03-05,22.2793699,114.2312389
609,南方大廈,SOUTHERN BUILDING,東區,2020-03-05,22.2899867,114.1946997
610,皇冠大廈,CORONET COURT,東區,2020-03-05,22.2906419,114.1964877
611,香島第２座,"TOWER 2, ISLAND GARDEN",東區,2020-03-05,22.2744589,114.2314987
612,柴灣道350號樂軒臺3座,"BLOCK 3, LOK HIN TERRACE, NO.350 CHAI WAN ROAD",東區,2020-03-05,22.2638772,114.2409769
613,海山樓,MONTANE MANSION,東區,2020-03-05,22.2842103,114.2119759
614,馬寶大廈,NO.44 MARBLE ROAD,東區,2020-03-05,22.291908,114.201455
615,基利坊17號南豐新邨11座,"BLOCK 11, NAN FUNG SUN CHUEN, NO.17 GREIG CRESCENT",東區,2020-03-05,22.282652,114.2146694
616,康盛街9-11號康怡花園F座,"BLOCK F, KORNHILL, NO.9-11 HONG SHING STREET",東區,2020-03-05,22.2811678,114.2163412
617,得利大廈,TAK LEE BUILDING,東區,2020-03-05,22.2867813,114.1426581
618,御景軒,SCENIC HORIZON,東區,2020-03-05,22.2801424,114.2249093
619,盛泰道100號杏花邨26座,"BLOCK 26, HENG FA CHUEN, NO.100 SHING TAI ROAD",東區,2020-03-05,22.2787401,114.2398624
620,連城道4-12號仁樂大廈B座,"BLOCK B, YEN LOK BUILDING, NO.4-12 LIN SHING ROAD",東區,2020-03-05,22.2614859,114.2359977
621,富利來大廈B座,"BLOCK B, FU LEE LOY MANSION",東區,2020-03-05,22.2885025,114.1918783
622,華樂樓,WAH LOK BUILDING,東區,2020-03-05,22.2809811,114.2226338
623,愛禮街2號愛蝶灣5座,"BLOCK 5, ALDRICH GARDEN, NO.2 OI LAI STREET",東區,2020-03-05,22.28099,114.2290656
624,筲箕灣道204號,NO.204 SHAU KEI WAN ROAD,東區,2020-03-05,22.280587,114.223676
625,電氣道233號城市花園3座,"BLOCK 3, CITY GARDEN, NO.233 ELECTRIC ROAD",東區,2020-03-05,22.2907972,114.1944295
626,翠巒閣,SERENE COURT,東區,2020-03-05,22.284356,114.1931681
627,興東邨興祖樓,"HING CHO HSE, HING TUNG ESTATE",東區,2020-03-05,22.2815705,114.2193134
628,興東邨興康樓,"HING HONG HSE, HING TUNG ESTATE",東區,2020-03-05,22.2812357,114.2197778
629,興華(二)邨和興樓,"WO HING HSE, HING WAH (II) ESTATE",東區,2020-03-05,22.2630132,114.2330593
630,錦屏街31A號東發大廈C座,"BLOCK C, TUNG FAT BUILDING, NO.31A KAM PING STREET",東區,2020-03-05,22.2901289,114.2002778
631,鴻福大樓,HUNG FUK BUILDING,東區,2020-03-05,22.289995,114.1996225
632,耀東邨耀樂樓,"YIU LOK HSE, YIU TUNG ESTATE",東區,2020-03-05,22.2782842,114.2213567
633,小西灣道18號富景花園9座,"BLOCK 9, FULLVIEW GARDEN, NO.18 SIU SAI WAN ROAD",東區,2020-03-06,22.262289,114.2514484
634,太古城富山閣高山臺,"KAO SHAN TERRACE, FU SHAN MANSION, TAIKOO SHING",東區,2020-03-06,22.2859339,114.2183984
635,太古城逸天閣海天花園,"HORIZON GARDENS, YAT TIEN MANSION, TAIKOO SHING",東區,2020-03-06,22.2864438,114.2175719
636,太古城鳳山閣高山臺,"KAO SHAN TERRACE, FOONG SHAN MANSION, TAIKOO SHING",東區,2020-03-06,22.2856684,114.2187561
637,太康街38號嘉亨灣3座,"BLOCK 3, GRAND PROMENADE, NO.38 TAI HONG STREET",東區,2020-03-06,22.2854421,114.2246075
638,文瀾樓,MILLAN HOUSE,東區,2020-03-06,22.2908449,114.1968592
639,北角中心大廈A座,"BLOCK A, NORTH POINT CENTRE",東區,2020-03-06,22.2893685,114.1949818
640,怡家洋樓,ELGAR MANSION,東區,2020-03-06,22.2900719,114.1976836
641,皇冠大廈C座,"BLOCK C, CORONET COURT",東區,2020-03-06,22.2793699,114.2312389
642,胡日皆大廈,FOO YET KAI BUILDING,東區,2020-03-06,22.2916428,114.197881
643,英皇道1116號康山花園4座,"BLOCK 4, KORNHILL GARDEN, NO.1116 KING'S ROAD",東區,2020-03-06,22.2855851,114.2159697
644,英皇道949號,NO.949 KING'S ROAD,東區,2020-03-06,22.2868783,114.2103689
645,峰華邨曉峰樓,"HIU FUNG HSE, FUNG WAH ESTATE",東區,2020-03-06,22.2606335,114.231016
646,柴灣邨灣映樓(第2座),"WAN YING HSE (BLK 2), CHAI WAN ESTATE",東區,2020-03-06,22.2643806,114.242475
647,馬寶道36號,NO.36 MARBLE ROAD,東區,2020-03-06,22.2918018,114.2009793
648,高威閣第４座,KOWAY COURT BLOCK 4,東區,2020-03-06,22.266331,114.233836
649,健康邨康達閣,"HONG TAT COURT, HEALTHY VILLAGE",東區,2020-03-06,22.2912971,114.2059902
650,盛泰道100號杏花邨3座,"BLOCK 3, HENG FA CHUEN, NO.100 SHING TAI ROAD",東區,2020-03-06,22.2769619,114.2389801
651,逢源大廈,FUNG YUEN BUILDING,東區,2020-03-06,22.2773645,114.2270455
652,愛秩序樓,ALDRICH HOUSE,東區,2020-03-06,22.2773197,114.2278814
653,新成街22號碧麗閣B座,"BLOCK B, BELLEVE COURT, NO.22 SUN SING STREET",東區,2020-03-06,22.27958,114.224347
654,新翠花園1座,"BLOCK 1, NEW JADE GARDEN",東區,2020-03-06,22.264079,114.237294
655,僑輝大廈,KIU FAI MANSION,東區,2020-03-06,22.2913822,114.1999476
656,嘉亨灣3,"BLOCK 3, GRAND PROMENADE",東區,2020-03-06,22.2851206,114.2244242
657,曉翠苑雅翠閣A座,"BLOCK A, NGAR TSUI HSE, HIU TSUI COURT",東區,2020-03-06,22.2628731,114.2470602
658,興民邨民澤樓,"MAN CHAK HSE, HING MAN ESTATE",東區,2020-03-06,22.2664679,114.2325717
659,興華(二)邨裕興樓,"YU HING HSE, HING WAH (II) ESTATE",東區,2020-03-06,22.2637098,114.2336165
660,環翠邨福翠樓,"FOOK TSUI HSE, WAN TSUI ESTATE",東區,2020-03-06,22.2618862,114.2364725
661,聯和大廈,LUEN WO APARTMENTS,東區,2020-03-06,22.2902374,114.19463
662,麗灣大廈,LAI WAN BUILDING,東區,2020-03-06,22.2833548,114.2212638
663,寶石樓,RUBY COURT,東區,2020-03-06,22.2917027,114.204824
664,MOUNT PARKER RESIDENCES,MOUNT PARKER RESIDENCES,東區,2020-03-07,22.2843203,114.2191508
665,小西灣邨瑞強樓,"SUI KEUNG HSE, SIU SAI WAN ESTATE",東區,2020-03-07,22.262527,114.2477335
666,太古城南海閣觀海臺,"KWUN HOI TERRACE, NAM HOI MANSION, TAIKOO SHING",東區,2020-03-07,22.286401,114.220615
667,太古城富天閣海天花園,"HORIZON GARDENS, FU TIEN MANSION, TAIKOO SHING",東區,2020-03-07,22.287113,114.217586
668,太古城鄱陽閣翠湖臺,"TSUI WOO TERRACE, POYANG MANSION, TAIKOO SHING",東區,2020-03-07,22.284791,114.220846
669,太古城興安閣安盛臺,"ON SHING TERRACE, HING ON MANSION, TAIKOO SHING",東區,2020-03-07,22.2863197,114.214098
670,太安樓,TAI ON BUILDING,東區,2020-03-07,22.2827296,114.22193
671,利都樓,RIALTO MANSION,東區,2020-03-07,22.2891703,114.1939334
672,和富道53號和富中心17座,"BLOCK 17, PROVIDENT CENTRE, NO.53 WHARF ROAD",東區,2020-03-07,22.2928927,114.1976952
673,英皇道238號康澤花園C座,"BLOCK C, FORTRESS METRO TOWER, NO.238 KING'S ROAD",東區,2020-03-07,22.2882618,114.1941656
674,英皇道416號新都城大廈,"METROPOLE BUILDING, NO.416 KING'S ROAD",東區,2020-03-07,22.2905261,114.1994101
675,英皇道560號健威花園E座,"BLOCK E, HEALTHY GARDENS, NO.560 KING'S ROAD",東區,2020-03-07,22.291428,114.2038023
676,書局街12號樂嘉中心,"ROCA CENTRE, NO.12 SHU KUK STREET",東區,2020-03-07,22.290954,114.200556
677,栢蕙苑寧栢閣,"LING PAK MANSION, PARKVALE",東區,2020-03-07,22.2836711,114.2131833
678,馬寶道2E號,NO.2E MARBLE ROAD,東區,2020-03-07,22.2916132,114.199518
679,國賓大廈,ODEON BUILDING,東區,2020-03-07,22.2919848,114.2002727
680,康樂大廈,HONG LOK BUILDING,東區,2020-03-07,22.292302,114.2021304
681,添金閣,TEEMKO COURT,東區,2020-03-07,22.2920351,114.197881
682,港逸軒,GLORY RISE,東區,2020-03-07,22.2912062,114.1984383
683,港運城港運城一座,"ONE ISLAND PLACE, ISLAND PLACE",東區,2020-03-07,22.290972,114.202643
684,匯豪峰,SPLENDID PLACE,東區,2020-03-07,22.2855554,114.2138102
685,愛東邨愛旭樓,"OI YUK HSE, OI TUNG ESTATE",東區,2020-03-07,22.2814869,114.2270223
686,翠灣邨翠壽樓B座,"BLOCK B, TSUI SHOU HSE, TSUI WAN ESTATE",東區,2020-03-07,22.2684249,114.2399336
687,興華(一)邨美華樓,"MAY WAH HSE, HING WAH (I) ESTATE",東區,2020-03-07,22.2625303,114.2355669
688,興華(二)邨展興樓,"CHIN HING HSE, HING WAH (II) ESTATE",東區,2020-03-07,22.2622542,114.2330361
689,興華(二)邨樂興樓,"LOK HING HSE, HING WAH (II) ESTATE",東區,2020-03-07,22.2637098,114.2336165
690,興漢大廈,HING HON BUILDING,東區,2020-03-07,22.2835136,114.1928304
691,龍景大廈,DRAGON VIEW HSE,東區,2020-03-07,22.2882798,114.211047
692,麗華樓,LAI WAH MANSION,東區,2020-03-07,22.2900943,114.2096306
693,寶馬山道1號寶馬山花園10座,"BLOCK 10, PACIFIC PALISADES, NO.1 BRAEMAR HILL ROAD",東區,2020-03-07,22.2876538,114.2038255
694,寶豐大廈,PO FUNG BUILDING,東區,2020-03-07,22.2901676,114.1981132
695,耀東邨耀貴樓,"YIU KWAI HSE, YIU TUNG ESTATE",東區,2020-03-07,22.2758811,114.2255362
696,耀東邨耀興樓,"YIU HING HSE, YIU TUNG ESTATE",東區,2020-03-07,22.2765596,114.2245343
697,小西灣邨瑞明樓,"SUI MING HSE, SIU SAI WAN ESTATE",東區,2020-03-08,22.2608409,114.2489504
698,小西灣邨瑞滿樓,"SUI MOON HSE, SIU SAI WAN ESTATE",東區,2020-03-08,22.2622816,114.2491498
699,小西灣道18號富景花園3座,"BLOCK 3, FULLVIEW GARDEN, NO.18 SIU SAI WAN ROAD",東區,2020-03-08,22.2629375,114.2524468
700,小西灣道28號藍灣半島5座,"BLOCK 5, ISLAND RESORT, NO.28 SIU SAI WAN ROAD",東區,2020-03-08,22.2663421,114.2517648
701,丹拿道18號丹拿花園1座,"BLOCK 1, TANNER GARDEN, NO.18 TANNER ROAD",東區,2020-03-08,22.2903555,114.2017588
702,太古城春櫻閣海景花園,"HARBOUR VIEW GARDENS, PRIMROSE MANSION, TAIKOO SHING",東區,2020-03-08,22.2876456,114.2204511
703,太古城海景花園金楓閣,"MAPLE MANSION, HARBOUR, VIEW GARDEN, TAIKOO SHING",東區,2020-03-08,22.2876592,114.2159465
704,太古城高安閣安盛臺,"ON SHING TERRACE, KO ON MANSION, TAIKOO SHING",東區,2020-03-08,22.287177,114.214122
705,太康街38號嘉亨灣1座,"BLOCK 1, GRAND PROMENADE, NO.38 TAI HONG STREET",東區,2020-03-08,22.2849924,114.2241431
706,西灣河街8號君悅軒,"GRAND GARDEN, NO.8 SAI WAN HO STREET",東區,2020-03-08,22.2799805,114.224763
707,阿公岩道15號明華大廈F座,"BLOCK F, MING WAH DAI HA, NO.15 A KUNG NGAM ROAD",東區,2020-03-08,22.2793699,114.2312389
708,阿公岩道17號明華大廈E座,"BLOCK E, MING WAH DAI HA, NO.17 A KUNG NGAM ROAD",東區,2020-03-08,22.2793699,114.2312389
709,阿公岩道25號明華大廈A座,"BLOCK A, MING WAH DAI HA, NO.25 A KUNG NGAM ROAD",東區,2020-03-08,22.2793699,114.2312389
710,英皇中心,KING'S CENTRE,東區,2020-03-08,22.2893771,114.1941424
711,英皇道1124號康山花園8座,"BLOCK 8, KORNHILL GARDEN, NO.1124 KING'S ROAD",東區,2020-03-08,22.2850027,114.2168985
712,英皇道238號康澤花園A座,"BLOCK A, FORTRESS METRO TOWER, NO.238 KING'S ROAD",東區,2020-03-08,22.2880661,114.1937476
713,英皇道416號新都城大廈D座,"BLOCK D, METROPOLE BUILDING, NO.416 KING'S ROAD",東區,2020-03-08,22.2905261,114.1994101
714,香島第１座,"TOWER 1, ISLAND GARDEN",東區,2020-03-08,22.2744589,114.2314987
715,柴灣邨灣畔樓,"WAN POON HSE , CHAI WAN ESTATE",東區,2020-03-08,22.2641189,114.2420682
716,柴灣邨灣畔樓1座,"WAN POON HSE , CHAI WAN ESTATE",東區,2020-03-08,22.2643806,114.242475
717,柴灣道350號樂軒臺1座,"BLOCK 1, LOK HIN TERRACE, NO.350 CHAI WAN ROAD",東區,2020-03-08,22.2634931,114.2403732
718,珠璣大廈,CHU KEE BUILDING,東區,2020-03-08,22.2914648,114.2006675
719,基利路32號南豐新邨12座,"BLOCK 12, NAN FUNG SUN CHUEN, NO.32 GREIG ROAD",東區,2020-03-08,22.2818221,114.2145548
720,康明苑,CUMINE COURT,東區,2020-03-08,22.2859594,114.1935618
721,康華大廈,CONWELL MANSION,東區,2020-03-08,22.278153,114.225889
722,渣華道9號,NO.9 JAVA ROAD,東區,2020-03-08,22.2913229,114.1957013
723,港運城二座,TWO ISLAND PLACE,東區,2020-03-08,22.290972,114.202643
724,華興大廈,WAH HING BUILDING,東區,2020-03-08,22.2915443,114.2009926
725,愛東邨愛平樓,"OI PING HSE, OI TUNG ESTATE",東區,2020-03-08,22.2820008,114.2276594
726,電氣道233號城市花園8座,"BLOCK 8, CITY GARDEN, NO.233 ELECTRIC ROAD",東區,2020-03-08,22.2910284,114.193529
727,嘉樂園,GALA GARDEN,東區,2020-03-08,22.2901298,114.1978693
728,漁灣邨漁順樓,"YUE SHUN HSE, YUE WAN ESTATE",東區,2020-03-08,22.2663143,114.2408608
729,興華(一)邨卓華樓,"CHEUK WAH HSE, HING WAH (I) ESTATE",東區,2020-03-08,22.2622549,114.2351026
730,興華(二)邨安興樓,"ON HING HSE, HING WAH (II) ESTATE",東區,2020-03-08,22.263258,114.233908
731,環翠邨盛翠樓,"SHING TSUI HSE, WAN TSUI ESTATE",東區,2020-03-08,22.2611479,114.2371458
732,寶馬山道25號賽西湖大廈6座,"BLOCK 6, BRAEMAR HILL MANSIONS, NO.25 BRAEMAR HILL ROAD",東區,2020-03-08,22.2852096,114.2015744
733,耀東邨耀安樓,"YIU ON HSE, YIU TUNG ESTATE",東區,2020-03-08,22.2787617,114.2227499
734,耀東邨耀富樓,"YIU FU HSE, YIU TUNG ESTATE",東區,2020-03-08,22.2786321,114.221914
735,耀東邨耀華樓,"YIU WAH HSE, YIU TUNG ESTATE",東區,2020-03-08,22.2789237,114.221171
736,耀東邨耀福樓,"YIU FOOK HSE, YIU TUNG ESTATE",東區,2020-03-08,22.2777897,114.2217282
737,永穏大厦,EVER SECURE MANSION,南區,2020-02-27,22.2498077,114.148464
738,貝沙灣2期7座,"BLOCK 7, PHASE 2, RESIDENCE BEL-AIR",南區,2020-02-27,22.2562349,114.1322537
739,香港仔大道179號,NO.179 ABERDEEN MAIN ROAD,南區,2020-02-27,22.2492391,114.1556836
740,香港仔中心美豐閣,"MEI FUNG COURT, ABERDEEN CENTRE",南區,2020-02-27,22.2481257,114.1533409
741,海怡半島4座,"BLOCK 4, SOUTH HORIZONS",南區,2020-02-27,22.2447215,114.1469777
742,湖北街16號,NO.16 WU PAK STREET,南區,2020-02-27,22.24804,114.1551743
743,鴨脷洲邨利澤樓,"LEI CHAK HOUSE, AP LEI CHAU ESTATE",南區,2020-02-27,22.244705,114.1501361
744,珍寶閣,JUMBO COURT,南區,2020-02-28,22.2458466,114.1646505
745,海怡半島御庭園御盈居(第26座),"EATON COURT (TOWER 26), THE OASIS, SOUTH HORIZONS",南區,2020-02-28,22.243154,114.150396
746,華富(一)邨華光樓,"WAH KWONG HSE, WAH FU (I) ESTATE",南區,2020-02-28,22.2497782,114.1372701
747,靖林,RADCLIFFE,南區,2020-02-28,22.267717,114.132029
748,鴨脷洲海旁道8號南灣10座,"BLOCK 10, LARVOTTO, NO.8 AP LEI CHAU PRAYA ROAD",南區,2020-02-28,22.2410147,114.1589145
749,石排灣邨碧月樓,"PIK YUET HSE, SHEK PAI WAN ESTATE",南區,2020-02-29,22.248953,114.157267
750,百良大廈,PAT LEUNG BUILDING,南區,2020-02-29,22.2435479,114.1525049
751,協勝大廈,HIP SING MANSION,南區,2020-02-29,22.2477685,114.1562154
752,麒麟閣,UNICORN GARDEN,南區,2020-02-29,22.249388,114.182642
753,BELGRAVIA,BELGRAVIA,南區,2020-03-01,22.2285929,114.1996457
754,貝沙灣1期3座,"TOWER 3, PHASE 1, RESIDENCE BEL-AIR",南區,2020-03-01,22.258157,114.1326485
755,花洲大樓,FA CHAU MANSION,南區,2020-03-01,22.2444223,114.1571379
756,海怡半島怡雅閣第二期9座,"BLOCK 9, PHASE II, YEE NGAR COURT , SOUTH HORIZONS",南區,2020-03-01,22.2440632,114.1447667
757,海怡半島海雅閣,"HOI NGAR COURT, SOUTH HORIZONS",南區,2020-03-01,22.2447503,114.1473493
758,登峰．南岸,SOUTH COAST,南區,2020-03-01,22.2493987,114.1495351
759,置富花園富榮苑19座,"BLOCK 19, FU WING YUEN, CHI FU FA YUEN",南區,2020-03-01,22.258801,114.1371041
760,漁安苑紫安閣D座,"BLOCK D, TSE ON HSE, YUE ON COURT",南區,2020-03-01,22.2427365,114.1569436
761,漁暉苑日暉閣B座,"BLOCK B, YAT FAI HSE, YUE FAI COURT",南區,2020-03-01,22.2499061,114.156947
762,薄扶林道180號薄扶林花園6座,"BLOCK 6, POKFULAM GARDENS, NO.180 POK FU LAM ROAD",南區,2020-03-01,22.2572385,114.1373862
763,石排灣道47號,NO.47 SHEK PAI WAN ROAD,南區,2020-03-02,22.2498954,114.1476279
764,石澳村,SHEK O VILLAGE,南區,2020-03-02,22.2334016,114.2420218
765,利東邨東茂樓,"TUNG MAU HSE, LEI TUNG ESTATE",南區,2020-03-02,22.241631,114.1556865
766,貝沙灣1期8座,"TOWER 8, PHASE 1, RESIDENCE BEL-AIR",南區,2020-03-02,22.2574739,114.1325556
767,東頭灣道59號3座,59 TUNG TAU WAN ROAD,南區,2020-03-02,22.2150422,114.2199635
768,香港大學第一學生舍堂村施徳堂,THE UNIVERSITY OF HONG KONG,南區,2020-03-02,22.2829989,114.1370848
769,香港仔大道8號景惠花園1座,"BLOCK 1, JING HUI GARDEN, NO.8 ABERDEEN MAIN ROAD",南區,2020-03-02,22.248027,114.1592396
770,香港仔田灣邨田澤樓,"TIN CHAK HSE, TIN WAN ESTATE",南區,2020-03-02,22.252404,114.1509489
771,海怡半島御庭園御柳居(第25座),"DOVER COURT (TOWER 25), THE OASIS, SOUTH HORIZONS",南區,2020-03-02,22.2425571,114.1494557
772,惠福道9號深灣9號9座,"BLOCK 9, MARINELLA, NO.9 WELFARE ROAD",南區,2020-03-02,22.2460193,114.1636832
773,華富(二)邨華昌樓,"WAH CHEONG HSE, WAH FU (II) ESTATE",南區,2020-03-02,22.2513626,114.1371772
774,華富(二)邨華翠樓,"WAH CHUI HSE, WAH FU (II) ESTATE",南區,2020-03-02,22.2538524,114.1361786
775,華富邨華光樓,"WAH KWONG HSE, WAH FU ESTATE",南區,2020-03-02,22.2497782,114.1372701
776,順景閣,SHUN KING COURT,南區,2020-03-02,22.2442864,114.1566851
777,嘉和大廈,KA WO BUILDING,南區,2020-03-02,22.249981,114.148647
778,合時大樓,HOP SHI BUILDING,南區,2020-03-03,22.2436486,114.1540841
779,香港仔海傍道3號逸港居3座,"BLOCK 3, OCEAN COURT, NO.3 ABERDEEN PRAYA ROAD",南區,2020-03-03,22.2474854,114.159495
780,海怡半島怡暉閣第二期13A座,"BLOCK 13A, PHASE II, YEE FAI COURT ), SOUTH HORIZONS",南區,2020-03-03,22.2432615,114.1457236
781,海怡半島美華閣)第三期22座,"BLOCK 22, PHASE III, MEI WAH COURT , SOUTH HORIZONS",南區,2020-03-03,22.2419591,114.1481853
782,海怡半島海雅閣(第3座),"HOI NGAR COURT (TOWER 3), SOUTH HORIZONS",南區,2020-03-03,22.2447503,114.1473493
783,馬坑邨駿馬樓,"CHUN MA HSE, MA HANG ESTATE",南區,2020-03-03,22.22228,114.2063075
784,華富(二)邨華生樓,"WAH SANG HSE, WAH FU (II) ESTATE",南區,2020-03-03,22.2524823,114.136434
785,華貴邨華廉樓3座,"BLOCK 3, WAH LIM HSE, WAH KWAI ESTATE",南區,2020-03-03,22.250478,114.1398944
786,黃竹坑新圍村黃竹坑新圍10號舊民居,"OLD HOUSE, NO. 10 WONG CHUK HANG SAN WAI, WONG CHUKHANG SAN WAI VILLAGE",南區,2020-03-03,22.249343,114.176244
787,鴨脷洲海旁道8號南灣7座,"BLOCK 7, LARVOTTO, NO.8 AP LEI CHAU PRAYA ROAD",南區,2020-03-03,22.2404329,114.1595647
788,石排灣道72號,NO.72 SHEK PAI WAN ROAD,南區,2020-03-04,22.249259,114.1484024
789,金發大廈,KAM FAT BUILDING,南區,2020-03-04,22.2436059,114.1526907
790,海怡半島怡翠閣第二期16座,"BLOCK 16, PHASE II, YEE TSUI COURT), SOUTH HORIZONS",南區,2020-03-04,22.2431304,114.1465931
791,海怡半島第二期怡韻閣(第15座),"YEE WAN COURT (TOWER 15), PHASE II, SOUTH HORIZONS",南區,2020-03-04,22.243179,114.146127
792,海怡半島第二期怡麗閣(第10座),"YEE LAI COURT (TOWER 10), PHASE II, SOUTH HORIZONS",南區,2020-03-04,22.243875,114.144527
793,海峰華軒,BAYSHORE APARTMENTS,南區,2020-03-04,22.2484356,114.1517849
794,華富(二)邨華泰樓,"WAH TAI HSE, WAH FU (II) ESTATE",南區,2020-03-04,22.2519225,114.1366663
795,置富花園富仁苑8座,"BLOCK 8, FU YAN YUEN, CHI FU FA YUEN",南區,2020-03-04,22.257053,114.1399257
796,年豐大廈,NING FUNG MANSION,南區,2020-03-05,22.2442317,114.1568941
797,貝沙灣1期1座,"TOWER 1, PHASE 1, RESIDENCE BEL-AIR",南區,2020-03-05,22.2585386,114.1325788
798,貝沙灣6期5座,"TOWER 5, PHASE 6 BEL-AIR NO.8, RESIDENCE BEL-AIR",南區,2020-03-05,22.2593636,114.1315012
799,貝沙灣6期7座,"TOWER 7, PHASE 6 BEL-AIR NO.8, RESIDENCE BEL-AIR",南區,2020-03-05,22.2593636,114.1315012
800,南灣道57號,NO.57 SOUTH BAY ROAD,南區,2020-03-05,22.2285929,114.1996457
801,洪聖街17號,NO.17 HUNG SHING STREET,南區,2020-03-05,22.2443612,114.1561393
802,香港大學栢立基學院,"ROBERT LACK COLLEGE , THE UNIVERSITY OF HONG KONG",南區,2020-03-05,22.2817324,114.1391386
803,悅海街3號悅海華庭3座,"BLOCK 3, MARINA HABITAT, NO.3 YUET HOI STREET",南區,2020-03-05,22.244217,114.1543084
804,海怡半島第三期美晞閣(第18座),"MEI HAY COURT (TOWER 18), PHASE III, SOUTH HORIZONS",南區,2020-03-05,22.242838,114.147903
805,域多利道550號碧瑤灣48座,"BLOCK 48, BAGUIO VILLA, NO.550 VICTORIA ROAD",南區,2020-03-05,22.2607916,114.1326717
806,華富(二)邨華興樓,"WAH HING HSE, WAH FU (II) ESTATE",南區,2020-03-05,22.2524526,114.1374559
807,鴨脷洲邨利澤樓,"LEI CHAK HSE, AP LEI CHAU ESTATE",南區,2020-03-05,22.244705,114.1501361
808,GROSVENOR PLACE,GROSVENOR PLACE,南區,2020-03-06,22.2386655,114.1965806
809,石排灣邨碧綠樓,"PIK LUK HSE, SHEK PAI WAN ESTATE",南區,2020-03-06,22.2486203,114.157823
810,石排灣邨碧綠樓(第7座),"PIK LUK HSE (BLK 7), SHEK PAI WAN ESTATE",南區,2020-03-06,22.2491289,114.1576455
811,利東邨東安樓,"TUNG ON HSE, LEI TUNG ESTATE",南區,2020-03-06,22.2406418,114.156987
812,香港仔大道174-176號,NO.174-176 ABERDEEN MAIN ROAD,南區,2020-03-06,22.2492391,114.1556836
813,鴨脷洲徑3號深灣軒1座,"BLOCK 1, SHAM WAN TOWERS, NO.3 AP LEI CHAU DRIVE",南區,2020-03-06,22.2437073,114.1585661
814,田灣邨田澤樓,"TIN CHAK HSE, TIN WAN ESTATE",南區,2020-03-07,22.252404,114.1509489
815,石排灣邨碧山樓4座,"BLOCK 4, PIK SHAN HSE , SHEK PAI WAN ESTATE",南區,2020-03-07,22.2498119,114.1580088
816,石排灣道86號,NO.86 SHEK PAI WAN ROAD,南區,2020-03-07,22.2489903,114.1489854
817,海怡半島第一期海暉閣(第2座),"HOI FAI COURT (TOWER 2), PHASE I, SOUTH HORIZONS",南區,2020-03-07,22.245059,114.147903
818,馬坑邨迎馬樓,"YING MA HSE, MA HANG ESTATE",南區,2020-03-07,22.2216364,114.2074247
819,華富(一)邨華安樓,"WAH ON HSE, WAH FU (I) ESTATE",南區,2020-03-07,22.2525,114.1363889
820,華富(二)邨華景樓,"WAH KING HSE, WAH FU (II) ESTATE",南區,2020-03-07,22.2531579,114.1368521
821,置富花園富俊苑14座,"BLOCK 14, FU CHUN YUEN, CHI FU FA YUEN",南區,2020-03-07,22.2580109,114.1391301
822,鴨脷洲邨利怡樓,"LEI YEE HSE, AP LEI CHAU ESTATE",南區,2020-03-07,22.244493,114.148231
823,龍德苑晉德閣A座,"BLOCK A, CHUN TAK HSE, LUNG TAK COURT",南區,2020-03-07,22.220619,114.2077962
824,大潭道38號浪琴園4座,"BLOCK 4, PACIFIC VIEW, NO.38 TAI TAM ROAD",南區,2020-03-08,22.2297324,114.2185703
825,石排灣邨碧園樓(第5座),"PIK YUEN HSE (BLK 5), SHEK PAI WAN ESTATE",南區,2020-03-08,22.2491289,114.1576455
826,石排灣邨碧銀樓(第3-3A座),"PIK NGAN HSE (BLK 3-3A), SHEK PAI WAN ESTATE",南區,2020-03-08,22.2491289,114.1576455
827,石排灣邨碧蔚樓(第6座),"PIK YUEN HSE (BLK 6), SHEK PAI WAN ESTATE",南區,2020-03-08,22.2491289,114.1576455
828,利東邨東興樓,"TUNG HING HSE, LEI TUNG ESTATE",南區,2020-03-08,22.2409917,114.1553149
829,海怡半島第三期美軒閣(第23座),"MEI HIN COURT (TOWER 23), PHASE III, SOUTH HORIZONS",南區,2020-03-08,22.2420243,114.1486033
830,惠福道9號深灣9號2座,"BLOCK 2, MARINELLA, NO.9 WELFARE ROAD",南區,2020-03-08,22.2460193,114.1636832
831,華富(一)邨華樂樓,"WAH LOK HSE, WAH FU (I) ESTATE",南區,2020-03-08,22.2515544,114.1385939
832,華貴邨華孝樓2座,"BLOCK 2, WAH HAU HSE, WAH KWAI ESTATE",南區,2020-03-08,22.2501177,114.1402409
833,華貴邨華善樓,"WAH SIN HSE, WAH KWAI ESTATE",南區,2020-03-08,22.2504021,114.139128
834,漁光邨白沙樓,"PAK SHA LAU, YUE KWONG CHUEN",南區,2020-03-08,22.2513098,114.1568012
835,漁安苑瑚安閣G座,"BLOCK G, WU ON HSE, YUE ON COURT",南區,2020-03-08,22.2427365,114.1569436
836,鴨脷洲邨利添樓,"LEI TIM HSE, AP LEI CHAU ESTATE",南區,2020-03-08,22.2447441,114.1514134
837,鴨脷洲徑3號深灣軒2座,"BLOCK 2, SHAM WAN TOWERS, NO.3 AP LEI CHAU DRIVE",南區,2020-03-08,22.2438379,114.1588448
838,鴨脷洲海旁道8號南灣5座,"BLOCK 5, LARVOTTO, NO.8 AP LEI CHAU PRAYA ROAD",南區,2020-03-08,22.2400839,114.1598434
839,ONE NEW YORK,ONE NEW YORK,深水埗,2020-02-27,22.3320934,114.146908
840,大安樓,TAI ON BUILDING,深水埗,2020-02-27,22.329274,114.163971
841,大南街519號,NO.519 TAI NAN STREET,深水埗,2020-02-27,22.3297782,114.1596899
842,石硤尾邨美虹樓(第43座)43座,"BLOCK 43, MEI HUNG HOUSE (BLK 43), SHEK KIP MEI ESTATE",深水埗,2020-02-27,22.332577,114.1674609
843,石硤尾街65號石硤尾邨,"SHEK KIP MEI ESTATE, NO.65 SHEK KIP MEI STREET",深水埗,2020-02-27,22.332577,114.1674609
844,光昌街3號,3 KWONG CHEUNG STREET,深水埗,2020-02-27,22.338789,114.151464
845,成林大廈,SHING LAM BUILDING,深水埗,2020-02-27,22.3304927,114.1641164
846,汝州街162號,NO. 162 YU CHAU STREET,深水埗,2020-02-27,22.328694,114.163328
847,汝州街162號,NO.162 YU CHAU STREET,深水埗,2020-02-27,22.328694,114.163328
848,長沙灣道145-149號,NO.145-149 CHEUNG SHA WAN ROAD,深水埗,2020-02-27,22.329265,114.1638842
849,青山道382號,NO.382 CASTLE PEAK ROAD,深水埗,2020-02-27,22.339625,114.155019
850,南昌街69號,NO.69 NAM CHEONG STREET,深水埗,2020-02-27,22.3280104,114.1619063
851,建發樓,KIN FAT HOUSE,深水埗,2020-02-27,22.329939,114.16556
852,恒昌樓,HANG CHEONG BUILDING,深水埗,2020-02-27,22.3278931,114.1626301
853,桂林街115號,NO.115 KWEILIN STREET,深水埗,2020-02-27,22.330392,114.161105
854,海麗邨海明樓,"HOI MING HSE, HOI LAI ESTATE",深水埗,2020-02-27,22.3323083,114.146444
855,海麗邨海慧樓,"HOI WAI HSE , HOI LAI ESTATE",深水埗,2020-02-27,22.3323083,114.146444
856,荔枝角道273號,NO.273 LAI CHI KOK ROAD,深水埗,2020-02-27,22.3278,114.161183
857,基隆街108號,NO.108 KI LUNG STREET,深水埗,2020-02-27,22.326861,114.164755
858,基隆街193A號,NO.193A KI LUNG STREET,深水埗,2020-02-27,22.3278526,114.1630249
859,基隆街193號,NO.193 KI LUNG STREET,深水埗,2020-02-27,22.3278526,114.1630249
860,基隆街254號,NO.254 KI LUNG STREET,深水埗,2020-02-27,22.329344,114.161542
861,基隆街367號,NO.367 KI LUNG STREET,深水埗,2020-02-27,22.3301525,114.1600524
862,康富樓,HONG FU HOUSE,深水埗,2020-02-27,22.3287351,114.1651794
863,祥發大廈,CHEUNG FAT BUILDING,深水埗,2020-02-27,22.326818,114.165658
864,黃金大廈4座,"BLOCK 4, GOLDEN BUILDING",深水埗,2020-02-27,22.3319837,114.1621711
865,義華大廈,YEE WA BUILDING,深水埗,2020-02-27,22.33912,114.154335
866,福華街114號,NO.114 FUK WA STREET,深水埗,2020-02-27,22.331268,114.162871
867,福華街544號,NO.544 FUK WA STREET,深水埗,2020-02-27,22.33886,114.153152
868,福榮街557號,NO.557 FUK WING STREET,深水埗,2020-02-27,22.339412,114.15293
869,肇義樓,SHIU YEE BUILDING,深水埗,2020-02-27,22.32826,114.165813
870,豪信大廈,HOSAR BUILDING,深水埗,2020-02-27,22.329586,114.166496
871,醫局街146號,NO.146 YEE KUK STREET,深水埗,2020-02-27,22.327683,114.160855
872,懷德樓,WAI TAK BUILDING,深水埗,2020-02-27,22.33136,114.163363
873,麗閣邨麗蘭樓,"LAI LAN HOUSE, LAI KOK ESTATE",深水埗,2020-02-27,22.3328992,114.1571495
874,寶輪街1號曼克頓山2座,"TOWER 2, MANHATTAN HILL, NO.1 PO LUN STREET",深水埗,2020-02-27,22.3345775,114.1424256
875,寶興樓,PAO HING HOUSE,深水埗,2020-02-27,22.304077,114.169037
876,蘇屋邨茶花樓,"CAMELLIA HOUSE, SO UK ESTATE",深水埗,2020-02-27,22.341106,114.158186
877,蘭秀道3號美孚新邨第五期,"STAGE V, MEI FOO SUN CHUEN, NO.3 NASSAU STREET",深水埗,2020-02-27,22.3358773,114.1411797
878,中銀長沙灣大樓,BOC CHEUNG SHA WAN BUILDING,深水埗,2020-02-28,22.3306858,114.1627601
879,元州街19號,NO.19 UN CHAU STREET,深水埗,2020-02-28,22.3312189,114.164488
880,元州街414號,NO. 414 UN CHAU STREET,深水埗,2020-02-28,22.338735,114.155279
881,巴域街59號,NO.59 BERWICK STREET,深水埗,2020-02-28,22.3322392,114.1650685
882,北河街72號,NO.72 PEI HO STREET,深水埗,2020-02-28,22.328947,114.161619
883,民安大廈,MAN ON BUILDING,深水埗,2020-02-28,22.3323023,114.1639771
884,石硤尾街2H號,NO.2H SHEK KIP MEI STREET,深水埗,2020-02-28,22.327184,114.1629629
885,汝州街148號,NO.148 YU CHAU STREET,深水埗,2020-02-28,22.328486,114.1636
886,百老匯街93-95號美孚新邨第四期,"STAGE IV, MEI FOO SUN CHUEN, NO.93-95 BROADWAY",深水埗,2020-02-28,22.3356599,114.142157
887,李鄭屋邨忠孝樓,"CHUNG HOU HOUSE, LEI CHENG UK ESTATE",深水埗,2020-02-28,22.3392712,114.1594043
888,李鄭屋邨廉潔樓,"LIM KIT HOUSE, LEI CHENG UK ESTATE",深水埗,2020-02-28,22.3391987,114.1603407
889,尚都,THE ASCENT,深水埗,2020-02-28,22.3364733,114.1596027
890,金海大廈,KAM HOI BUILDING,深水埗,2020-02-28,22.3294257,114.1570566
891,長沙灣幸福邨福月樓,"FOOK YUET HOUSE, CHEUNG SHA WAN FORTUNE ESTATE",深水埗,2020-02-28,22.3352468,114.1537357
892,青山道300號,NO.300 CASTLE PEAK ROAD,深水埗,2020-02-28,22.338179,114.156943
893,恆安樓,HANG ON BUILDING,深水埗,2020-02-28,22.3320402,114.1629436
894,美孚新邨第6期,"STAGE 6, MEI FOO SUN CHUEN",深水埗,2020-02-28,22.3358773,114.1411797
895,兼善里36號,NO.36 KIM SHIN LANE,深水埗,2020-02-28,22.3285899,114.1602846
896,桂林街155號,NO.155 KWEILIN STREET,深水埗,2020-02-28,22.33271,114.163182
897,桂林街38D號,NO.38D KWEILIN STREET,深水埗,2020-02-28,22.3298688,114.1608932
898,海柏匯,HARBOUR PARK,深水埗,2020-02-28,22.32668,114.1602437
899,荔枝角道214號,NO.214 LAI CHI KOK ROAD,深水埗,2020-02-28,22.3266725,114.1632047
900,荔枝角道339號丰滙2座,"BLOCK 2, TRINITY TOWERS, NO.339 LAI CHI KOK ROAD",深水埗,2020-02-28,22.328953,114.159651
901,基隆街286號,NO.286 KI LUNG STREET,深水埗,2020-02-28,22.329759,114.161017
902,深水埗大廈,SHAMSHUIPO BUILDING,深水埗,2020-02-28,22.3266764,114.1621889
903,深旺道28號匯璽3A座,"BLOCK 3A, CULLINAN WEST, NO.28 SHAM MONG ROAD",深水埗,2020-02-28,22.3260868,114.1544439
904,深旺道28號匯璽II3B座,"BLOCK 3B, CULLINAN WEST II, NO.28 SHAM MONG ROAD",深水埗,2020-02-28,22.3260868,114.1544439
905,喜雅2座,"BLOCK 2, HEYA GREEN",深水埗,2020-02-28,22.3369975,114.1603311
906,富昌邨富良樓,"FU LEUNG HOUSE, FU CHEONG ESTATE",深水埗,2020-02-28,22.3295461,114.1535267
907,富昌邨富悅樓,"FU YUET HOUSE, FU CHEONG ESTATE",深水埗,2020-02-28,22.3277453,114.1554078
908,普泰大樓,PO TAI BUILDING,深水埗,2020-02-28,22.3302887,114.1645808
909,新榮大樓,SUN WING BUILDING,深水埗,2020-02-28,22.3285899,114.1602846
910,歌和老街20號畢架山峰6座,"BLOCK 6, MOUNT BEACON, NO.20 CORNWALL STREET",深水埗,2020-02-28,22.3402454,114.171869
911,福華街552號,NO. 552 FUK WA STREET,深水埗,2020-02-28,22.3391859,114.1526913
912,福華街552號,NO.552 FUK WA STREET,深水埗,2020-02-28,22.3391859,114.1526913
913,維邦大廈,WAI PONT HOUSE,深水埗,2020-02-28,22.329818,114.166701
914,鴨寮街207號,NO.207 APLIU STREET,深水埗,2020-02-28,22.330283,114.161609
915,醫局街144號,NO.144 YEE KUK STREET,深水埗,2020-02-28,22.327653,114.160897
916,麗閣邨麗葵樓,"LAI KWAI HOUSE, LAI KOK ESTATE",深水埗,2020-02-28,22.3332776,114.1566851
917,大南街161-163號,NO.161-163 TAI NAN STREET,深水埗,2020-02-29,22.326771,114.1636
918,大南街232號,NO.232 TAI NAN STREET,深水埗,2020-02-29,22.3278538,114.1625929
919,大南街257號,NO.257 TAI NAN STREET,深水埗,2020-02-29,22.3282632,114.1617854
920,永隆大廈,WING LOONG BUILDING,深水埗,2020-02-29,22.3371204,114.1581962
921,石安大廈,SHIK ON BUILDING,深水埗,2020-02-29,22.3323304,114.1639577
922,石硤尾邨美賢樓,"MEI YIN HOUSE, SHEK KIP MEI ESTATE",深水埗,2020-02-29,22.3340578,114.1655516
923,百老匯街37號美孚新邨第二期,"STAGE II, MEI FOO SUN CHUEN, NO.37 BROADWAY",深水埗,2020-02-29,22.336439,114.140118
924,百老匯街96號美孚新邨第八期,"STAGE VIII, MEI FOO SUN CHUEN, NO.96 BROADWAY",深水埗,2020-02-29,22.3285899,114.1602846
925,協興大廈,HIP HING BUILDING,深水埗,2020-02-29,22.3300501,114.1636055
926,東廬大廈,TUNG LO COURT,深水埗,2020-02-29,22.3305081,114.1661865
927,金玉大廈,KAM YUCK BUILDING,深水埗,2020-02-29,22.334646,114.167025
928,金碧閣,GOLDEN JADE HEIGHTS,深水埗,2020-02-29,22.3399559,114.1537357
929,南昌邨昌逸樓5座,"BLOCK 5, CHEONG YAT HOUSE, NAM CHEONG ESTATE",深水埗,2020-02-29,22.3259121,114.1570798
930,南昌邨昌謙樓,"CHEONG HIM HOUSE, NAM CHEONG ESTATE",深水埗,2020-02-29,22.3267581,114.1576604
931,南昌街39號,NO.39 NAM CHEONG STREET,深水埗,2020-02-29,22.3271091,114.1612881
932,南昌街71號,NO.71 NAM CHEONG STREET,深水埗,2020-02-29,22.328042,114.1619283
933,南富樓,NAM FU BUILDING,深水埗,2020-02-29,22.3288307,114.1609
934,桂林街97號,NO.97 KWEILIN STREET,深水埗,2020-02-29,22.329967,114.160755
935,荔枝角道212號,NO.212 LAI CHI KOK ROAD,深水埗,2020-02-29,22.3267138,114.163259
936,荔枝角道863號泓景臺5座,"BLOCK 5, BANYAN GARDEN, NO.863 LAI CHI KOK ROAD",深水埗,2020-02-29,22.3339641,114.147242
937,荔枝角道863號泓景臺5座,"BLOCK 5, BANYAN MALL, BANYAN GARDEN",深水埗,2020-02-29,22.3339641,114.147242
938,基隆街250號,NO.250 KI LUNG STREET,深水埗,2020-02-29,22.329299,114.1616
939,基隆街252號,NO.252 KI LUNG STREET,深水埗,2020-02-29,22.329317,114.161571
940,深旺道28號匯璽第3座,"BLK 3, CULLINAN WEST, NO.28 SHAM MONG ROAD",深水埗,2020-02-29,22.3260868,114.1544439
941,紹興大樓,SIU HING MANSION,深水埗,2020-02-29,22.3265425,114.1617941
942,富昌邨富韻樓,"FU WEN HOUSE, FU CHEONG ESTATE",深水埗,2020-02-29,22.3285302,114.1554078
943,富寧苑,HUNITY GARDEN,深水埗,2020-02-29,22.330199,114.174756
944,就安大廈,CHEW ONN BUILDING,深水埗,2020-02-29,22.3293397,114.1591235
945,欽州街27號,NO.27 YEN CHOW STREET,深水埗,2020-02-29,22.329181,114.158445
946,渭濱樓,WAI BUN BUILDING,深水埗,2020-02-29,22.3317606,114.1642325
947,華盛大廈,WAH SHING BUILDING,深水埗,2020-02-29,22.3331248,114.1629088
948,順寧居,SHINING COURT,深水埗,2020-02-29,22.339081,114.15619
949,順興樓,SHUN HING BUILDING,深水埗,2020-02-29,22.330507,114.161238
950,匯璽3B座,"BLK 3B, CULLINAN WEST",深水埗,2020-02-29,22.3260868,114.1544439
951,匯璽匯璽第5B座,"CULLINAN WEST TOWER 5B, CULLINAN WEST",深水埗,2020-02-29,22.3260868,114.1544439
952,榮華樓,WING WAH BUILDING,深水埗,2020-02-29,22.328663,114.164728
953,福安大廈,FOOK ON BUILDING,深水埗,2020-02-29,22.3309005,114.1634662
954,寶熙苑富熙閣A座,"BLOCK A, FU HEI HOUSE, PO HEI COURT",深水埗,2020-02-29,22.3372222,114.1594444
955,寶熙苑榮熙閣B座,"BLK B, WING HEI HOUSE, PO HEI COURT",深水埗,2020-02-29,22.3372222,114.1594444
956,寶輪街1號曼克頓山2座,"BLOCK 2, MANHATTAN HILL, NO.1 PO LUN STREET",深水埗,2020-02-29,22.3345775,114.1424256
957,蘇屋邨牡丹樓3座,"BLOCK 3, PEONY HOUSE, SO UK ESTATE",深水埗,2020-02-29,22.340812,114.157405
958,大坑東邨東旺樓,"TUNG WONG HOUSE, TAI HANG TUNG ESTATE",深水埗,2020-03-01,22.3304227,114.1713296
959,大南街203號,NO.203 TAI NAN STREET,深水埗,2020-03-01,22.3274314,114.1627237
960,大南街253號,NO.253 TAI NAN STREET,深水埗,2020-03-01,22.3281335,114.1618524
961,大德樓,TAI TAK BUILDING,深水埗,2020-03-01,22.3301773,114.1605865
962,元州街128號,NO.128 UN CHAU STREET,深水埗,2020-03-01,22.3341114,114.1611913
963,北河街17號,NO.17 PEI HO STREET,深水埗,2020-03-01,22.3276236,114.1600524
964,北河街68號,NO.68 PEI HO STREET,深水埗,2020-03-01,22.328883,114.161561
965,永康街50號,NO.50 WING HONG STREET,深水埗,2020-03-01,22.3404798,114.1531783
966,石硤尾邨美山樓(第42座),"MEI SHAN HOUSE (BLK 42), SHEK KIP MEI ESTATE",深水埗,2020-03-01,22.332361,114.165427
967,石硤尾邨美益樓1座,"MEI YICK HOUSE, SHEK KIP MEI ESTATE",深水埗,2020-03-01,22.332577,114.1674609
968,石硤尾街17號,NO.17 SHEK KIP MEI STREET,深水埗,2020-03-01,22.3289199,114.1642985
969,百老匯街39號,NO.39 BROADWAY,深水埗,2020-03-01,22.3285899,114.1602846
970,百老匯街39號美孚新邨,"MEI FOO SUN CHUEN, NO.39 BROADWAY",深水埗,2020-03-01,22.3366356,114.1402195
971,百老匯街4號美孚新邨第一期,"STAGE I, MEI FOO SUN CHUEN, NO.4 BROADWAY",深水埗,2020-03-01,22.336446,114.138315
972,金華大廈,KAM WAH MANSION,深水埗,2020-03-01,22.3313953,114.1623021
973,長沙灣道179號,NO.179 CHEUNG SHA WAN ROAD,深水埗,2020-03-01,22.3297868,114.1631826
974,長沙灣道199號,NO.199 CHEUNG SHA WAN ROAD,深水埗,2020-03-01,22.3300766,114.1627462
975,保良局少清大廈,PO LEUNG KUK SIU CHING MANSION,深水埗,2020-03-01,22.3290016,114.1623747
976,南山邨南泰樓,"NAM TAI HOUSE, NAM SHAN ESTATE",深水埗,2020-03-01,22.3344171,114.171901
977,南山邨南逸樓,"NAM YAT HOUSE, NAM SHAN ESTATE",深水埗,2020-03-01,22.3350055,114.1715707
978,荔枝角道217A號,NO.217A LAI CHI KOK ROAD,深水埗,2020-03-01,22.3268651,114.1624267
979,基隆街218號,NO.218 KI LUNG STREET,深水埗,2020-03-01,22.328736,114.162341
980,深旺道28號匯璽,"CULLINAN WEST, NO.28 SHAM MONG ROAD",深水埗,2020-03-01,22.3260868,114.1544439
981,瑰麗路6號又一居6座,"BLOCK 6, PARC OASIS, NO.6 GRANDEUR ROAD",深水埗,2020-03-01,22.3334019,114.1748035
982,福華街41號,NO 41 FUK WA STREET,深水埗,2020-03-01,22.3284321,114.1660555
983,福榮街86號,NO.86 FUK WING STREET,深水埗,2020-03-01,22.331918,114.163007
984,鴨寮街192號,NO.192 APLIU STREET,深水埗,2020-03-01,22.330175,114.16224
985,鴨寮街254號,NO.254 APLIU STREET,深水埗,2020-03-01,22.331168,114.16093
986,鴨寮街49號,NO.49 APLIU STREET,深水埗,2020-03-01,22.3272953,114.165523
987,鴻裕大廈,HUNG YU MANSION,深水埗,2020-03-01,22.3351446,114.1601917
988,醫局街158號,NO.158 YEE KUK STREET,深水埗,2020-03-01,22.3283066,114.1601453
989,麗閣邨麗菊樓,"LAI KUK HOUSE, LAI KOK ESTATE",深水埗,2020-03-01,22.3314632,114.157823
990,大坑西新邨民興樓,"MAN HING HOUSE, TAI HANG SAI ESTATE",深水埗,2020-03-02,22.3333821,114.171849
991,大坑東邨東成樓,"TUNG SHING HOUSE, TAI HANG TUNG ESTATE",深水埗,2020-03-02,22.332695,114.171879
992,大南街207號,207 TAI NAN STREET,深水埗,2020-03-02,22.3275917,114.1624676
993,元州街213號美居中心4座,"BLOCK 4, MANOR CENTRE, NO.213 UN CHAU STREET",深水埗,2020-03-02,22.3348493,114.1598327
994,文海樓,MAN HOI MANSION,深水埗,2020-03-02,22.328529,114.1655098
995,永漢樓,WING HON HOUSE,深水埗,2020-03-02,22.3285899,114.1602846
996,白田邨13座,"BLOCK 13 BLOCK, PAK TIN ESTATE",深水埗,2020-03-02,22.3351567,114.1673695
997,白田街51號白田邨13座,"BLOCK 13, PAK TIN ESTATE, NO.51 PAK TIN STREET",深水埗,2020-03-02,22.3351567,114.1673695
998,石硤尾邨美映樓,"MEI YING HSE, SHEK KIP MEI ESTATE",深水埗,2020-03-02,22.334109,114.1680943
999,石硤尾邨美映樓(第2座)2座,"BLOCK 2, MEI YING HSE (BLK 2), SHEK KIP MEI ESTATE",深水埗,2020-03-02,22.332156,114.162212
1000,石硤尾邨美笙樓(第3座),"MEI SANG HOUSE (BLK 3), SHEK KIP MEI ESTATE",深水埗,2020-03-02,22.332577,114.1674609
1001,吉利徑21號美孚新邨第二期,"STAGE II, MEI FOO SUN CHUEN, NO.21 GLEE PATH",深水埗,2020-03-02,22.336439,114.140118
1002,吉利徑8號美孚新邨第三期,"STAGE III, MEI FOO SUN CHUEN, NO.8 GLEE PATH",深水埗,2020-03-02,22.3358773,114.1411797
1003,好景樓,HO KING BUILDING,深水埗,2020-03-02,22.328764,114.165652
1004,汝州街278號,NO.278 YU CHAU HOUSE,深水埗,2020-03-02,22.330662,114.160804
1005,汝州街69號,NO.69 YU CHAU STREET,深水埗,2020-03-02,22.326681,114.165435
1006,百老匯街67號美孚新邨第三期,"STAGE III, MEI FOO SUN CHUEN, NO.67 BROADWAY",深水埗,2020-03-02,22.3358773,114.1411797
1007,李鄭屋邨信義樓,"SHUN YEE HOUSE, LEI CHENG UK ESTATE",深水埗,2020-03-02,22.337634,114.159335
1008,其景樓,KI KING HOUSE,深水埗,2020-03-02,22.3285264,114.1643129
1009,青山道287號,NO.287 CASTLE PEAK ROAD,深水埗,2020-03-02,22.337467,114.157361
1010,保安道18號喜雅1座,"BLOCK 1, HEYA GREEN, NO.18 PO ON ROAD",深水埗,2020-03-02,22.3369975,114.1603311
1011,保安道2號樂年花園2座,"BLOCK 2, CRONIN GARDEN, NO.2 PO ON ROAD",深水埗,2020-03-02,22.3362789,114.1610629
1012,冠奇大廈,KOON KAY MANSION,深水埗,2020-03-02,22.3327086,114.1615387
1013,南山邨南偉樓,"NAM WAI HOUSE, NAM SHAN ESTATE",深水埗,2020-03-02,22.334737,114.1712046
1014,南邦大廈,NAM PONT BUILDING,深水埗,2020-03-02,22.3291781,114.1636055
1015,南昌中心,NAM CHEONG CENTRE,深水埗,2020-03-02,22.3283514,114.1622121
1016,南昌街112號,NO.112 NAM CHEONG STREET,深水埗,2020-03-02,22.328766,114.163182
1017,建新大樓,KIN SUN BUILDING,深水埗,2020-03-02,22.3289723,114.1581973
1018,恒柏道6號美孚新邨第六期,"STAGE VI, MEI FOO SUN CHUEN, NO.6 HUMBERT STREET",深水埗,2020-03-02,22.339346,114.140029
1019,美孚新邨第三期百老匯街90號,"NO.90 BROADWAY, MEI FOO SUN CHUEN STAGE III",深水埗,2020-03-02,22.3358773,114.1411797
1020,茘景山路264號清麗苑G座,"BLOCK G, CHING LAI COURT, NO.264 LAI KING HILL ROAD",深水埗,2020-03-02,22.33927,114.1351782
1021,荔枝角道863號泓景臺3座,"BLOCK 3 BLOCK, BANYAN GARDEN, NO.863 LAI CHI KOK ROAD",深水埗,2020-03-02,22.3339641,114.147242
1022,荔景山路264號清麗苑G座,"BLOCK G, CHING LAI COURT, NO.264 LAI KING HILL ROAD",深水埗,2020-03-02,22.33927,114.1351782
1023,基隆街228號,NO.228 KI LUNG STREET,深水埗,2020-03-02,22.328847,114.162202
1024,基隆街288號,NO.288 KI LUNG STREET,深水埗,2020-03-02,22.329796,114.160969
1025,基隆街98號,NO.98 KI LUNG STREET,深水埗,2020-03-02,22.326641,114.165042
1026,梨木樹邨康樹樓,"HONG SHUE HOUSE, LEI MUK SHUE ESTATE",深水埗,2020-03-02,22.3788718,114.1370146
1027,深盛路9號宇晴軒2座,"BLOCK 2, THE PACIFICA, NO.9 SHAM SHING ROAD",深水埗,2020-03-02,22.335077,114.1498342
1028,華登大廈,WAH TANG BUILDING,深水埗,2020-03-02,22.3292297,114.1630017
1029,匯璽II第3B座,"TOWER 3B, CULLINAN WEST II",深水埗,2020-03-02,22.3260868,114.1544439
1030,萬和大廈,MAN WOO BUILDING,深水埗,2020-03-02,22.32706,114.163726
1031,瑰麗路26號又一居21座,"BLOCK 21, PARC OASIS, NO.26 GRANDEUR ROAD",深水埗,2020-03-02,22.3332542,114.17392
1032,福華街87號,NO.87 FUK WA STREET,深水埗,2020-03-02,22.329804,114.164372
1033,福榮街58號,NO.58 FUK WING STREET,深水埗,2020-03-02,22.331304,114.163813
1034,福榮街62號,NO.62 FUK WING STREET,深水埗,2020-03-02,22.331617,114.163403
1035,慶豐大樓,HING FUNG BUILDING,深水埗,2020-03-02,22.331584,114.16358
1036,鴨寮街10號,NO.10 APLIU STREET,深水埗,2020-03-02,22.3269619,114.1664619
1037,醫局街172號,NO.172 YEE KUK STREET,深水埗,2020-03-02,22.328316,114.160073
1038,麗翠苑麗柏閣,"LAI PAK HOUSE, LAI TSUI COURT",深水埗,2020-03-02,22.3335277,114.1547903
1039,麗翠苑麗柏閣,"LAI PAK HSE, LAI TSUI COURT",深水埗,2020-03-02,22.3335277,114.1547903
1040,又一樓,YAU YAT LAU,深水埗,2020-03-03,22.3313173,114.1756115
1041,又一樓B座,"BLOCK B, YAU YAT LAU",深水埗,2020-03-03,22.3313173,114.1756115
1042,大元樓,TAI YUEN HOUSE,深水埗,2020-03-03,22.2912359,114.1950712
1043,大南街275號,NO.275 TAI NAN STREET,深水埗,2020-03-03,22.3284579,114.1614289
1044,大南街339-341號,NO.339-341 TAI NAN STREET,深水埗,2020-03-03,22.3294803,114.1600292
1045,元州邨元盛樓,"UN SHING HOUSE, UN CHAU ESTATE",深水埗,2020-03-03,22.3372366,114.1549433
1046,元州邨元滿樓(第1座)1座,"BLOCK 1, UN MUN HOUSE (BLK 1), UN CHAU ESTATE",深水埗,2020-03-03,22.335591,114.1576372
1047,元州邨元慧樓(第2座)2座,"BLOCK 2, UN WAI HOUSE (BLK 2), UN CHAU ESTATE",深水埗,2020-03-03,22.3359112,114.1572656
1048,元州街213號美居中心6座,"BLOCK 6, MANOR CENTRE, NO.213 UN CHAU STREET",深水埗,2020-03-03,22.3348493,114.1598327
1049,吉利徑4號美孚新邨第二期,"STAGE II, MEI FOO SUN CHUEN, NO.4 GLEE PATH",深水埗,2020-03-03,22.336439,114.140118
1050,金沙樓,KAM SHA MANSION,深水埗,2020-03-03,22.3310233,114.1622754
1051,青山道357號,NO.357 CASTLE PEAK ROAD,深水埗,2020-03-03,22.338528,114.155872
1052,青山道387A號,NO.387A CASTLE PEAK ROAD,深水埗,2020-03-03,22.339007,114.155299
1053,南山邨南豐樓,"NAM FUNG HOUSE, NAM SHAN ESTATE",深水埗,2020-03-03,22.3326122,114.1707163
1054,南都大廈,RONDALL BUILDING,深水埗,2020-03-03,22.3312276,114.1654404
1055,界限街9C號,NO.9C BOUNDARY STREET,深水埗,2020-03-03,22.3263978,114.1616619
1056,美孚新邨美孚廣場第四期,"STAGE IV, MEI FOO PLAZA, MEI FOO SUN CHUEN",深水埗,2020-03-03,22.3356599,114.142157
1057,桂林街101號,NO.101 KWEILIN STREET,深水埗,2020-03-03,22.3301391,114.160894
1058,桂林街288號,NO.288 KWEILIN STREET,深水埗,2020-03-03,22.329796,114.160969
1059,桂林街38G號,NO.38G KWEILIN STREET,深水埗,2020-03-03,22.3298688,114.1608932
1060,海麗邨海慧樓,"HOI WAI HSE, HOI LAI ESTATE",深水埗,2020-03-03,22.3323083,114.146444
1061,荔枝角道310號,NO.310 LAI CHI KOK ROAD,深水埗,2020-03-03,22.3283623,114.1611495
1062,荔盈街1號凱樂苑A座,"BLOCK A, HOI LOK COURT, NO.1 LAI YING STREET",深水埗,2020-03-03,22.3280509,114.1493
1063,基隆街264號,NO.264 KI LUNG STREET,深水埗,2020-03-03,22.329452,114.161406
1064,基隆街274號,NO.274 KI LUNG STREET,深水埗,2020-03-03,22.329588,114.161221
1065,康利大廈,HONG LEE BUILDING,深水埗,2020-03-03,22.3285899,114.1602846
1066,祥興大樓,CHEUNG HING BUILDING,深水埗,2020-03-03,22.329921,114.164175
1067,欽州街62號,NO.62 YEN CHOW STREET,深水埗,2020-03-03,22.3309948,114.1604979
1068,欽州街98號,NO.98 YEN CHOW STREET,深水埗,2020-03-03,22.332758,114.162192
1069,順泰大廈,SHUN TAI BUILDING,深水埗,2020-03-03,22.286673,114.140951
1070,萬興大廈,MAN HING BUILDING,深水埗,2020-03-03,22.328131,114.163947
1071,裕興大廈,YUE HING BUILDING,深水埗,2020-03-03,22.3267005,114.1632804
1072,運福樓,FORTUNE MANSION,深水埗,2020-03-03,22.327327,114.165904
1073,榮昌邨榮傑樓,"WING KIT HOUSE, WING CHEONG ESTATE",深水埗,2020-03-03,22.3294315,114.155222
1074,歌和老街20號畢架山峰1座,"BLOCK 1, MOUNT BEACON, NO.20 CORNWALL STREET",深水埗,2020-03-03,22.3402454,114.171869
1075,福華街120號,NO.120 FUK WA STREET,深水埗,2020-03-03,22.331349,114.162774
1076,福僑大樓,FUK KIU BUILDING,深水埗,2020-03-03,22.331245,114.162556
1077,福榮街48號,NO.48 FUK WING STREET,深水埗,2020-03-03,22.331195,114.163933
1078,曉尚,HIGH POINT,深水埗,2020-03-03,22.3317384,114.1649226
1079,鴨寮街108號,NO.108 APLIU STREET,深水埗,2020-03-03,22.3287923,114.1641164
1080,鴨寮街208號,NO.208 APLIU STREET,深水埗,2020-03-03,22.330401,114.16193
1081,鴨寮街255號,NO.255 APLIU STREET,深水埗,2020-03-03,22.3309764,114.1607723
1082,鴨寮街78號,NO.78 APLIU STREET,深水埗,2020-03-03,22.3282719,114.1647898
1083,麗翠苑麗陽閣,"LAI YEUNG HOUSE, LAI TSUI COURT",深水埗,2020-03-03,22.3335277,114.1547903
1084,蘇屋邨百合樓,"LILY HOUSE, SO UK ESTATE",深水埗,2020-03-03,22.3410352,114.1565689
1085,蘇屋邨蘭花樓,"ORCHID HOUSE, SO UK ESTATE",深水埗,2020-03-03,22.3410352,114.1565689
1086,大坑東邨東龍樓,"TUNG LUNG HOUSE, TAI HANG TUNG ESTATE",深水埗,2020-03-04,22.331407,114.170815
1087,大南街177號,NO.177 TAI NAN STREET,深水埗,2020-03-04,22.326978,114.163318
1088,大南街362號,NO.362 TAI NAN STREET,深水埗,2020-03-04,22.32975,114.160202
1089,元州邨元雅樓,"UN NGA HOUSE, UN CHAU ESTATE",深水埗,2020-03-04,22.3365083,114.1562438
1090,白田邨昌田樓,"CHEUNG TIN HOUSE, PAK TIN ESTATE",深水埗,2020-03-04,22.3359955,114.168105
1091,石竹路10號,NO.10 DIANTHUS ROAD,深水埗,2020-03-04,22.3285899,114.1602846
1092,石硤尾邨美益樓,"MEI YICK HOUSE, SHEK KIP MEI ESTATE",深水埗,2020-03-04,22.332577,114.1674609
1093,石硤尾邨美益樓(第1座)1座,"BLOCK 1, MEI YICK HOUSE (BLK 1), SHEK KIP MEI ESTATE",深水埗,2020-03-04,22.3343934,114.1651204
1094,汝州街301號,NO.301 YU CHAU STREET,深水埗,2020-03-04,22.3305299,114.160424
1095,幸福邨福明樓,"FOOK MING HOUSE, FORTUNE ESTATE",深水埗,2020-03-04,22.3353334,114.1542931
1096,東廬大廈B座,"BLOCK B, TUNG LO COURT",深水埗,2020-03-04,22.330639,114.1661758
1097,金濤閣,KENT PLACE,深水埗,2020-03-04,22.3283633,114.1582642
1098,長沙灣兼善里40號,"NO.40 KIM SHIN LANE, CHEUNG SHA WAN",深水埗,2020-03-04,22.3285899,114.1602846
1099,青山道475號,NO.475 CASTLE PEAK ROAD,深水埗,2020-03-04,22.339618,114.1522146
1100,南昌邨昌安樓,"CHEONG ON HOUSE, NAM CHEONG ESTATE",深水埗,2020-03-04,22.3259694,114.157823
1101,南昌邨昌頌樓1座,"BLOCK 1, CHEONG CHUNG HOUSE, NAM CHEONG ESTATE",深水埗,2020-03-04,22.325809,114.1582874
1102,南昌街116號,NO.116 NAM CHEONG STREET,深水埗,2020-03-04,22.328811,114.163231
1103,南昌街55號,NO.55 NAM CHEONG STREET,深水埗,2020-03-04,22.327542,114.16145
1104,桂林大樓,KWEILIN MANSION,深水埗,2020-03-04,22.330798,114.161435
1105,桂林街119號,NO.119 KWEILIN STREET,深水埗,2020-03-04,22.330364,114.161105
1106,桂林街95A號,NO.95A KWEILIN STREET,深水埗,2020-03-04,22.3298096,114.1607223
1107,桂林街95號,NO.95 KWEILIN STREET,深水埗,2020-03-04,22.3298096,114.1607223
1108,基隆街149號,NO.149 KI LUNG STREET,深水埗,2020-03-04,22.326942,114.164182
1109,基隆街213號,NO.213 KI LUNG STREET,深水埗,2020-03-04,22.3279983,114.1628937
1110,基隆街369號,NO.369 KI LUNG STREET,深水埗,2020-03-04,22.330032,114.1602415
1111,崇德樓,SHUNG TAK BUILDING,深水埗,2020-03-04,22.3290946,114.1605401
1112,惠康樓,WELCOME HOUSE,深水埗,2020-03-04,22.3323627,114.1606214
1113,普陞閣,BEVERLY COURT,深水埗,2020-03-04,22.3268675,114.160424
1114,森明樓,SUM MING HOUSE,深水埗,2020-03-04,22.3269711,114.1618406
1115,華通樓,WAH TONG HOUSE,深水埗,2020-03-04,22.3299855,114.1629088
1116,華僑樓,HUACHIAO BUILDING,深水埗,2020-03-04,22.327415,114.162278
1117,福華大廈,FUK WA MANSION,深水埗,2020-03-04,22.3307149,114.1636752
1118,福華街572號,NO.572 FUK WA STREET,深水埗,2020-03-04,22.3392338,114.152548
1119,廣發唐樓,KWONG FAT BUILDING,深水埗,2020-03-04,22.33851,114.156561
1120,鴨寮街202號,NO.202 APLIU STREET,深水埗,2020-03-04,22.33031,114.162046
1121,麗安邨麗廉樓(第2座),"LAI LIM HOUSE (BLK 2), LAI ON ESTATE",深水埗,2020-03-04,22.3307503,114.1584732
1122,寶豪大廈,PO HO MANSION,深水埗,2020-03-04,22.3266287,114.1626301
1123,蘇屋邨杜鵑樓,"AZALEA HOUSE, SO UK ESTATE",深水埗,2020-03-04,22.339636,114.156731
1124,蘇屋邨彩雀樓,"LARKSPUR HOUSE, SO UK ESTATE",深水埗,2020-03-04,22.3407266,114.156647
1125,蘭秀道14號美孚新邨第五期,"STAGE V, MEI FOO SUN CHUEN, NO.14 NASSAU STREET",深水埗,2020-03-04,22.3358773,114.1411797
1126,大坑西新邨民安樓,"MAN ON HOUSE, TAI HANG SAI ESTATE",深水埗,2020-03-05,22.332334,114.169151
1127,大坑東邨東健樓1座,"BLOCK 1, TUNG KIN HSE, TAI HANG TUNG ESTATE",深水埗,2020-03-05,22.3304227,114.1713296
1128,大南街192-194號,NO.192-194 TAI NAN STREET,深水埗,2020-03-05,22.327222,114.163483
1129,五聯大樓,PENTA HOUSE,深水埗,2020-03-05,22.331936,114.164929
1130,元州邨元泰樓,"UN TAI HOUSE, UN CHAU ESTATE",深水埗,2020-03-05,22.337326,114.155629
1131,元州邨元智樓,"UN CHI HOUSE, UN CHAU ESTATE",深水埗,2020-03-05,22.3362607,114.1567083
1132,元州街25A號,NO.25A UN CHAU STREET,深水埗,2020-03-05,22.3314265,114.1641396
1133,太子中心一座,"BLOCK 1, PRINCE CENTRE",深水埗,2020-03-05,22.3285161,114.1671121
1134,白田邨潤田樓,"YUN TIN HOUSE, PAK TIN ESTATE",深水埗,2020-03-05,22.3369897,114.1675304
1135,石硤尾邨美如樓,"MEI YUE HSE, SHEK KIP MEI ESTATE",深水埗,2020-03-05,22.3335201,114.1684615
1136,石硤尾邨美葵樓,"MEI KWAI HOUSE, SHEK KIP MEI ESTATE",深水埗,2020-03-05,22.332577,114.1674609
1137,汝州街150號,NO.150 YU CHAU STREET,深水埗,2020-03-05,22.328532,114.163541
1138,汝州街238A號,NO.238A YU CHAU STREET,深水埗,2020-03-05,22.329931,114.161629
1139,汝州街247號,NO.247 YU CHAU STREET,深水埗,2020-03-05,22.3296948,114.1615038
1140,汝洲街247號,NO.247 汝洲街,深水埗,2020-03-05,22.3296948,114.1615038
1141,百老匯街22號美孚新邨第一期,"STAGE I, MEI FOO SUN CHUEN, NO.22 BROADWAY",深水埗,2020-03-05,22.336446,114.138315
1142,李鄭屋邨仁愛樓,"YAN OI HOUSE, LEI CHENG UK ESTATE",深水埗,2020-03-05,22.3392712,114.1594043
1143,兩洲大廈,LEUNG CHAU BUILDING,深水埗,2020-03-05,22.3330962,114.1625372
1144,幸俊苑俊禮閣A座,"BLOCK A, CHUN LAI HOUSE, HANG CHUN COURT",深水埗,2020-03-05,22.3360763,114.1528997
1145,花圃街47號又一村花園第2期,"PHASE B, VILLAGE GARDENS, NO.47 FA PO STREET",深水埗,2020-03-05,22.3285899,114.1602846
1146,金球閣,GOLDEN CELL COURT,深水埗,2020-03-05,22.337516,114.157751
1147,長沙灣道128號,NO.128 CHEUNG SHA WAN ROAD,深水埗,2020-03-05,22.3293741,114.1643999
1148,青薈,GIOVANE,深水埗,2020-03-05,22.336046,114.15918
1149,南山邨南安樓,"NAM ON HOUSE, NAM SHAN ESTATE",深水埗,2020-03-05,22.333589,114.17153
1150,南山邨南堯樓,"NAM YIU HOUSE, NAM SHAN ESTATE",深水埗,2020-03-05,22.334131,114.170685
1151,南昌邨昌頌樓,"CHEONG CHUNG HOUSE, NAM CHEONG ESTATE",深水埗,2020-03-05,22.325809,114.1582874
1152,南昌邨昌賢樓2座,"BLOCK 2, CHEONG YIN HOUSE, NAM CHEONG ESTATE",深水埗,2020-03-05,22.3264194,114.1582874
1153,南洋大廈,SOUTH OCEAN BUILDING,深水埗,2020-03-05,22.3325502,114.1603311
1154,迦南大廈,CANAAN BUILDING,深水埗,2020-03-05,22.3265877,114.1604007
1155,荔枝角道332號,NO.332 LAI CHI KOK ROAD,深水埗,2020-03-05,22.3287459,114.1606601
1156,荔枝角道863號泓景臺7座,"BLOCK 7, BANYAN GARDEN, NO.863 LAI CHI KOK ROAD",深水埗,2020-03-05,22.3339641,114.147242
1157,基隆街142號,NO.142 KI LUNG STREET,深水埗,2020-03-05,22.3274567,114.1639443
1158,基隆街161號,NO.161 KI LUNG STREET,深水埗,2020-03-05,22.327222,114.163842
1159,基隆街255號,NO.255 KI LUNG STREET,深水埗,2020-03-05,22.328757,114.161881
1160,基隆街294號,NO.294 KI LUNG STREET,深水埗,2020-03-05,22.329937,114.160739
1161,通州街178號,NO.178 TUNG CHAU STREET,深水埗,2020-03-05,22.3260234,114.1613529
1162,富華大廈,FU WA MANSION,深水埗,2020-03-05,22.3284384,114.1593093
1163,貴華樓,KWAI WAH HOUSE,深水埗,2020-03-05,22.331515,114.162544
1164,順寧道431號,NO.431 SHUN NING ROAD,深水埗,2020-03-05,22.3386897,114.1567199
1165,嘉威大廈,GALLOWAY MANSION,深水埗,2020-03-05,22.326809,114.167173
1166,榮昌邨榮俊樓,"WING CHUN HOUSE, WING CHEONG ESTATE",深水埗,2020-03-05,22.3290203,114.1557561
1167,瑰麗路35號又一居27座,"BLOCK 27, PARC OASIS, NO.35 GRANDEUR ROAD",深水埗,2020-03-05,22.3334019,114.1748035
1168,福華街115號北河大廈A座,"BLOCK A, PEI HO BUILDING, NO.115 FUK WA STREET",深水埗,2020-03-05,22.3305991,114.1633036
1169,福華街9號,NO.9 FUK WA STREET,深水埗,2020-03-05,22.3277934,114.1668567
1170,廣成街2-20號康輝大廈B座,"BLOCK B, HONG FAI BUILDING, NO.2-20 KWONG SHING STREET",深水埗,2020-03-05,22.3406535,114.1537357
1171,德安樓,TAK ON HOUSE,深水埗,2020-03-05,22.3279779,114.1645808
1172,鴨寮街113號,NO.113 APLIU STREET,深水埗,2020-03-05,22.328667,114.163629
1173,鴨寮街4號,NO.4 APLIU STREET,深水埗,2020-03-05,22.326897,114.166473
1174,鴨寮街85號,NO.85 APLIU STREET,深水埗,2020-03-05,22.328098,114.164424
1175,鴻興大廈,HUNG HING MANSION,深水埗,2020-03-05,22.3328323,114.1628972
1176,寶安閣,PO ON COURT,深水埗,2020-03-05,22.3360083,114.1610742
1177,蘇屋邨牡丹樓,"PEONY HOUSE, SO UK ESTATE",深水埗,2020-03-05,22.341106,114.158186
1178,蘇屋邨壽菊樓,"MARIGOLD HOUSE, SO UK ESTATE",深水埗,2020-03-05,22.3410352,114.1565689
1179,蘇屋邨壽菊樓2座,"BLOCK 2, MARIGOLD HOUSE, SO UK ESTATE",深水埗,2020-03-05,22.3410352,114.1565689
1180,蘇屋邨櫻桃樓6座,"BLOCK 6, CHERRY HOUSE, SO UK ESTATE",深水埗,2020-03-05,22.332577,114.1674609
1181,大南街157號,NO.157 TAI NAN STREET,深水埗,2020-03-06,22.32662,114.1637913
1182,大南街207號,NO.207 TAI NAN STREET,深水埗,2020-03-06,22.3275917,114.1624676
1183,大南街271號,NO.271 TAI NAN STREET,深水埗,2020-03-06,22.3283891,114.1615183
1184,大南街384號,NO.384 TAI NAN STREET,深水埗,2020-03-06,22.330039,114.159814
1185,元州邨元健樓,"UN KIN HOUSE, UN CHAU ESTATE",深水埗,2020-03-06,22.3372226,114.1567774
1186,元州邨元逸樓(第3座),"UN YAT HOUSE (BLK 3), UN CHAU ESTATE",深水埗,2020-03-06,22.3365592,114.1561974
1187,元州邨元禧樓,"UN HEI HOUSE, UN CHAU ESTATE",深水埗,2020-03-06,22.3358833,114.1563367
1188,永康街54號,NO.54 WING HONG STREET,深水埗,2020-03-06,22.3405713,114.1532488
1189,白田邨太田樓,"TAI TIN HOUSE, PAK TIN ESTATE",深水埗,2020-03-06,22.3356513,114.1671652
1190,白田邨安田樓,"ON TIN HOUSE, PAK TIN ESTATE",深水埗,2020-03-06,22.335792,114.165463
1191,白田邨瑞田樓,"SHUI TIN HOUSE, PAK TIN ESTATE",深水埗,2020-03-06,22.335529,114.168782
1192,白花大廈,PAK FAR BUILDING,深水埗,2020-03-06,22.330783,114.165957
1193,石硤尾邨美笙樓(第3座)3座,"BLOCK 3, MEI SANG HOUSE (BLK 3), SHEK KIP MEI ESTATE",深水埗,2020-03-06,22.3336487,114.1661008
1194,吉利徑15號美孚新邨第二期,"STAGE II, MEI FOO SUN CHUEN, NO.15 GLEE PATH",深水埗,2020-03-06,22.336439,114.140118
1195,吉利徑19號美孚新邨第二期,"STAGE II, MEI FOO SUN CHUEN, NO.19 GLEE PATH",深水埗,2020-03-06,22.336439,114.140118
1196,宇晴軒3期,"PHASE 3, THE PACIFICA",深水埗,2020-03-06,22.334746,114.1498105
1197,安順大廈,ON SHEUNG BUILDING,深水埗,2020-03-06,22.3295139,114.162305
1198,汝州街289號,NO.289 YU CHAU STREET,深水埗,2020-03-06,22.3303016,114.1607285
1199,百老匯街100號美孚新邨第八期,"STAGE VIII, MEI FOO SUN CHUEN, NO.100 BROADWAY",深水埗,2020-03-06,22.3285899,114.1602846
1200,明輝大廈,MING FAI BUILDING,深水埗,2020-03-06,22.315928,114.222069
1201,金安大廈,KAM ON BUILDING,深水埗,2020-03-06,22.3326508,114.1642557
1202,長沙灣邨長欣樓,"CHEUNG YAN HOUSE, CHEUNG SHA WAN ESTATE",深水埗,2020-03-06,22.3347063,114.156058
1203,長沙灣道211-215號,211-215 CHEUNG SHA WAN ROAD,深水埗,2020-03-06,22.3305219,114.1623578
1204,長康大廈,CHEUNG HONG MANSION,深水埗,2020-03-06,22.327483,114.166815
1205,青山道152C號,NO.152C CASTLE PEAK ROAD,深水埗,2020-03-06,22.335843,114.1598878
1206,保安道373號豐盛居,"BEACON LODGE, NO.373 PO ON ROAD",深水埗,2020-03-06,22.3401534,114.1556632
1207,保安道65號美寧中心D座,"BLOCK D, MERLIN CENTRE, NO.65 PO ON ROAD",深水埗,2020-03-06,22.336957,114.159832
1208,保華大廈,BAO HUA BUILDING,深水埗,2020-03-06,22.3322918,114.1607259
1209,南昌街223-237號,"223-237, NAM CHEONG STREET",深水埗,2020-03-06,22.3341073,114.1674605
1210,帝景峰帝景軒1座,"TROPICANA 1, DYNASTY HEIGHTS",深水埗,2020-03-06,22.3433281,114.1643
1211,帝景峰帝景臺二期7座,"BLOCK 7, PHASE 2, DYNASTY VILLA, DYNASTY HEIGHTS",深水埗,2020-03-06,22.3437587,114.1628993
1212,香港城市大學學生宿舍舍堂10及11,"HALL 10&11, CITY UNIVERSITY OF HONG KONG STUDENT HOSTELS",深水埗,2020-03-06,22.339889,114.169156
1213,倫美大廈,LUN MAY BUILDING,深水埗,2020-03-06,22.339679,114.154877
1214,桂林街153號,NO.153 KWEILIN STREET,深水埗,2020-03-06,22.33267,114.163138
1215,海麗邨海暉樓,"HOI FAI HSE, HOI LAI ESTATE",深水埗,2020-03-06,22.33302,114.145274
1216,基隆街112-116號,NO.112-116 KI LUNG STREET,深水埗,2020-03-06,22.3269348,114.1645986
1217,曼克頓山2座,"BLOCK 2, MANHATTAN HILL",深水埗,2020-03-06,22.3320934,114.146908
1218,深盛路8號碧海藍天5座,"BLOCK 5, AQUAMARINE, NO.8 SHAM SHING ROAD",深水埗,2020-03-06,22.3322096,114.148576
1219,富昌邨富旺樓,"FU WONG HOUSE, FU CHEONG ESTATE",深水埗,2020-03-06,22.3289815,114.1547575
1220,富昌邨富凱樓,"FU HOI HOUSE, FU CHEONG ESTATE",深水埗,2020-03-06,22.3289394,114.1533641
1221,青山道338-340號,338-340 CASTLE PEAK ROAD,深水埗,2020-03-06,22.3387966,114.1561462
1222,順寧道98號美寧中心A座,"BLOCK A, MERLIN CENTRE, NO.98 SHUN NING ROAD",深水埗,2020-03-06,22.3368044,114.1597034
1223,新北河大樓,NEW PEI HO BUILDING,深水埗,2020-03-06,22.3299423,114.1626301
1224,新輝大廈,SUN FAIR BUILDING,深水埗,2020-03-06,22.3325461,114.1636752
1225,嘉安大樓,KA ON BUILDING,深水埗,2020-03-06,22.3279379,114.1675998
1226,嘉裕居,CITY REGALIA,深水埗,2020-03-06,22.3288598,114.1594021
1227,幗寶樓,KWOK PO HOUSE,深水埗,2020-03-06,22.3271903,114.1641416
1228,福華街110號,NO.110 FUK WA STREET,深水埗,2020-03-06,22.331223,114.162939
1229,福榮街107A號,NO. 107A FUK WING STREET,深水埗,2020-03-06,22.331539,114.163085
1230,樂成樓,LOK SHING HOUSE,深水埗,2020-03-06,22.33145,114.16422
1231,曉盈,HIGH ONE GRAND,深水埗,2020-03-06,22.333742,114.160648
1232,興業大樓,HING YIP APARTMENTS,深水埗,2020-03-06,22.3340592,114.1623747
1233,鴨寮街194號,NO.194 APLIU STREET,深水埗,2020-03-06,22.3302517,114.1621889
1234,麗群閣,LAI KWAN COURT,深水埗,2020-03-06,22.340436,114.153936
1235,蘇屋邨石竹樓,"CARNATION HOUSE, SO UK ESTATE",深水埗,2020-03-06,22.3410352,114.1565689
1236,蘇屋邨茶花樓,"CAMELLIA, SO UK ESTATE",深水埗,2020-03-06,22.341106,114.158186
1237,大埔道56號,NO.56 TAI PO ROAD,深水埗,2020-03-07,22.328171,114.16721
1238,元州街37號,NO.37 UN CHAU STREET,深水埗,2020-03-07,22.331448,114.164085
1239,巴域街54號石硤尾邨21座,"BLOCK 21, SHEK KIP MEI ESTATE, NO.54 BERWICK STREET",深水埗,2020-03-07,22.3329908,114.164678
1240,北河街74號,NO.74 PEI HO STREET,深水埗,2020-03-07,22.328983,114.161658
1241,永勝大樓,WING SHING BUILDING,深水埗,2020-03-07,22.3332304,114.1626534
1242,白田邨麗田樓,"LAI TIN HOUSE, PAK TIN ESTATE",深水埗,2020-03-07,22.3351567,114.1673695
1243,白田街10號石硤尾邨22座,"BLOCK 22, SHEK KIP MEI ESTATE, NO.10 PAK TIN STREET",深水埗,2020-03-07,22.333661,114.164492
1244,好時閣,HOUSTON COURT,深水埗,2020-03-07,22.3304955,114.161887
1245,汝州街250號,NO.250 YU CHAU STREET,深水埗,2020-03-07,22.3302272,114.1613761
1246,百老匯街3號美孚新邨第一期,"STAGE I, MEI FOO SUN CHUEN, NO.3 BROADWAY",深水埗,2020-03-07,22.3358773,114.1411797
1247,李鄭屋邨和平樓,"WO PING HOUSE, LEI CHENG UK ESTATE",深水埗,2020-03-07,22.338853,114.158337
1248,明勝樓,MING SING BUILDING,深水埗,2020-03-07,22.326631,114.166577
1249,長發大廈,CHEUNG FAT MANSION,深水埗,2020-03-07,22.326818,114.165658
1250,青山道193號,NO.193 CASTLE PEAK ROAD,深水埗,2020-03-07,22.3358977,114.1594254
1251,青山道268號,NO.268 CASTLE PEAK ROAD,深水埗,2020-03-07,22.3378004,114.1574514
1252,南昌一號,PARKONE,深水埗,2020-03-07,22.3264505,114.160537
1253,恆達大廈,HANG TAT BUILDING,深水埗,2020-03-07,22.3279288,114.1624759
1254,界限街13號,NO.13 BOUNDARY STREET,深水埗,2020-03-07,22.3265108,114.1639306
1255,盈達樓,YING TAT BUILDING,深水埗,2020-03-07,22.3284336,114.1603078
1256,桂林街77號,NO.77 KWEILIN STREET,深水埗,2020-03-07,22.3292655,114.1600824
1257,桂林街85號,NO.85 KWEILIN STREET,深水埗,2020-03-07,22.3295953,114.1603961
1258,海盈邨盈昌樓,"YING CHEONG HOUSE, HOI YING ESTATE",深水埗,2020-03-07,22.3287295,114.1476595
1259,海盈邨盈輝樓,"YING FAI HOUSE, HOI YING ESTATE",深水埗,2020-03-07,22.3287295,114.1476595
1260,海麗邨海健樓,"HOI KIN HSE, HOI LAI ESTATE",深水埗,2020-03-07,22.3323083,114.146444
1261,荔枝角道344號,NO.344 LAI CHI KOK ROAD,深水埗,2020-03-07,22.328908,114.1603925
1262,荔枝角道873號一號‧西九龍2座,"BLOCK 2, ONE WEST KOWLOON, NO.873 LAI CHI KOK ROAD",深水埗,2020-03-07,22.3346789,114.1468063
1263,荔香大廈,LAI HEUNG BUILDING,深水埗,2020-03-07,22.3270071,114.1621657
1264,基隆街124號,NO.124 KI LUNG STREET,深水埗,2020-03-07,22.327005,114.16457
1265,基隆街163號,NO.163 KI LUNG STREET,深水埗,2020-03-07,22.327249,114.163813
1266,基隆街236號,NO.236 KI LUNG STREET,深水埗,2020-03-07,22.32901,114.161988
1267,深旺道28號匯璽5B座,"BLOCK 5B, CULLINAN WEST, NO.28 SHAM MONG ROAD",深水埗,2020-03-07,22.3260868,114.1544439
1268,深盛路8號碧海藍天3座,"BLOCK 3, AQUAMARINE, NO.8 SHAM SHING ROAD",深水埗,2020-03-07,22.3322096,114.148576
1269,富昌邨富盈樓,"FU YING HOUSE, FU CHEONG ESTATE",深水埗,2020-03-07,22.328182,114.1548504
1270,富昌邨富萊樓,"FU LOY HOUSE, FU CHEONG ESTATE",深水埗,2020-03-07,22.3290114,114.1540144
1271,富華廣場,FLORENCE PLAZA,深水埗,2020-03-07,22.3314987,114.1621549
1272,匯璽 2座,"TOWER 2, CULLINAN WEST",深水埗,2020-03-07,22.3260868,114.1544439
1273,匯璽2B座,"BLOCK 2B, CULLINAN WEST",深水埗,2020-03-07,22.3260868,114.1544439
1274,匯璽5座,"TOWER 5, CULLINAN WEST",深水埗,2020-03-07,22.3260868,114.1544439
1275,達之路47號又一居19座,"BLOCK 19, PARC OASIS, NO.47 TAT CHEE AVENUE",深水埗,2020-03-07,22.3285899,114.1602846
1276,達之路51號又一居17座,"BLOCK 17, PARC OASIS, NO.51 TAT CHEE AVENUE",深水埗,2020-03-07,22.3334019,114.1748035
1277,榮昌邨榮俊樓(第1座),"WING CHUN HOUSE (BLK 1), WING CHEONG",深水埗,2020-03-07,22.3291154,114.1557559
1278,福華街115-117號北河大廈,"PEI HO BUILDING, NO.115-117 FUK WA STREET",深水埗,2020-03-07,22.3305991,114.1633036
